Address,Postort,Kommun,Latitude,Longitude
Kungsgatan 44,Karlshamn,Karlshamn,56.171174,14.864172
Drottninggatan 61,Karlshamn,Karlshamn,56.171444,14.860768
Storgatan 25,Asarum,Karlshamn,56.207128,14.833076
Drottninggatan 55,Karlshamn,Karlshamn,56.170602,14.861707
Sölvesborgsvägen 35,Mörrum,Karlshamn,56.184995,14.849359
Holländarevägen 68,Svängsta,Karlshamn,56.262125,14.771503
Drottninggatan 39,Karlshamn,Karlshamn,56.169234,14.862772
Ronnebygatan 44,Karlskrona,Karlskrona,56.162212,15.585801
Ronnebygatan 43,Karlskrona,Karlskrona,56.162042,15.586133
Ronnebygatan 47,Karlskrona,Karlskrona,56.162057,15.585274
Lasarettsvägen 1,Karlskrona,Karlskrona,56.181255,15.604672
Västra riksvägen 11,Jämjö,Karlskrona,56.191654,15.83458
Borgmästaregatan 13,Karlskrona,Karlskrona,56.161467,15.583556
Stationsvägen 20,Lyckeby,Karlskrona,56.196599,15.643006
Verkövägen 5,Lyckeby,Karlskrona,56.19658,15.64085
Idrottsvägen 2,Nättraby,Karlskrona,56.206091,15.52802
Stortorget 10,Karlskrona,Karlskrona,56.161654,15.587182
Ronnebygatan 34,Karlskrona,Karlskrona,56.16219,15.588398
Östra storgatan 34,Olofström,Olofström,56.277556,14.530445
Östra storgatan 11,Olofström,Olofström,56.278041,14.524392
Västra torggatan 7,Ronneby,Ronneby,56.210675,15.276569
Häradsvägen 18,Bräkne-Hoby,Ronneby,56.229089,15.118212
Flisevägen 2,Kallinge,Ronneby,56.245491,15.286248
Östra torggatan 1,Ronneby,Ronneby,56.210156,15.275907
Drottninggatan 11,Ronneby,Ronneby,56.211805,15.275758
Kungsgatan 11,Ronneby,Ronneby,56.211476,15.276252
Stortorget 11,Sölvesborg,Sölvesborg,56.052549,14.587504
Sparbanksgatan 2,Sölvesborg,Sölvesborg,56.051408,14.584301
Centrumvägen 2,Sölvesborg,Sölvesborg,56.046499,14.679321
Södergatan 17,Sölvesborg,Sölvesborg,56.051549,14.583916
Järnvägsgatan 16,Krylbo,Avesta,60.130725,16.213445
Kungsgatan 18,Avesta,Avesta,60.145623,16.170529
Markustorget 1,Avesta,Avesta,60.145881,16.168253
Skogsbovägen 12,Avesta,Avesta,60.158399,16.182311
Marcustorget 1,Avesta,Avesta,60.145881,16.168253
Jaxtorget 1 A,Borlänge,Borlänge,60.483315,15.404136
Stationsgatan 6,Borlänge,Borlänge,60.485144,15.432697
Stationsgatan 8,Borlänge,Borlänge,60.485081,15.432825
Stationsgatan 11,Borlänge,Borlänge,60.485235,15.43316
Hedgatan 1 C,Borlänge,Borlänge,60.440629,15.491203
Kvarnforsplan 4,Borlänge,Borlänge,60.516198,15.414506
Stationsgatan 14,Borlänge,Borlänge,60.484804,15.43338
Kupolen 53,Borlänge,Borlänge,60.4842955,15.417776
Tyllsnäsvägen 4,Borlänge,Borlänge,60.462478,15.476336
Bragegatan 6,Borlänge,Borlänge,60.496581,15.431159
Ovanbrogatan 7,Borlänge,Borlänge,60.482899,15.426538
Norra Backagatan 5 C,Borlänge,Borlänge,60.478562,15.418945
Sveagatan 6,Borlänge,Borlänge,60.486346,15.432001
Åsgatan 24,Falun,Falun,60.608085,15.630189
Korsnäsvägen 136,Falun,Falun,60.595711,15.684071
Nedre heden 1,Falun,Falun,60.624968,15.611904
Åsgatan 33,Falun,Falun,60.606794,15.631493
Mårtsbovägen 2,Bjursås,Falun,60.739596,15.444044
Söderbaums väg,Falun,Falun,60.6095009162785,15.642876704231
Kopparvägen 28,Falun,Falun,60.599045,15.66625
Åsgatan 25,Falun,Falun,60.605998,15.633158
Centrumvägen 3,Svärdsjö,Falun,60.74193,15.903749
Slaggatan 11,Falun,Falun,60.608094,15.628511
Holmgatan 20,Falun,Falun,60.605453,15.63304
Djurås centrum,Gagnef,Gagnef,60.552521,15.129572
Centrumvägen 3,Gagnef,Gagnef,60.56038,15.130568
Åsgatan 49,Hedemora,Hedemora,60.277821,15.98572
Åsgatan 70,Hedemora,Hedemora,60.276908,15.985907
Hökartorget 5,Hedemora,Hedemora,60.278371,15.98615
Riksvägen,Insjön,Leksand,60.6795118131617,15.0805872995016
Leksandsvägen 5,Leksand,Leksand,60.731514,14.997104
Hjultorget 34,Insjön,Leksand,60.675533,15.089683
Sparbanksgatan 1,Leksand,Leksand,60.73099,14.995101
Carlavägen 12,Ludvika,Ludvika,60.149571,15.186769
Kopparbergsvägen 60,Grängesberg,Ludvika,60.076384,15.00763
STORGATAN 15,Ludvika,Ludvika,60.150585,15.186785
Storgatan 26,Ludvika,Ludvika,60.150312,15.185998
Tunnelgatan 2,Ludvika,Ludvika,60.14426,15.179722
Engelbrektsgatan 3,Ludvika,Ludvika,60.149331,15.185441
Tyforsvägen 1,Fredriksberg,Ludvika,60.14128,14.372168
Grönlandsvägen 30,Malung,Malung-Sälen,60.683453,13.712194
Tandådalen 1,Sälen,Malung-Sälen,61.147689,13.273282
Hemfjällsvägen,Sälen,Malung-Sälen,61.1495404161625,13.2113593377943
Sälfjällstorget,Sälen,Malung-Sälen,61.165545,13.176018
Högfjällshotellet,Sälen,Malung-Sälen,61.156734,13.116966
Grönlandsvägen 38,Malung,Malung-Sälen,60.68328,13.71316
Hagvägen 8,Sälen,Malung-Sälen,61.155704,13.268506
Kyrkogatan 2,Mora,Mora,61.006547,14.53992
Kyrkogatan 22b,Mora,Mora,61.004087,14.537229
Kyrkogatan 12,Mora,Mora,61.005295,14.538561
Lasarettsvägen 35,Mora,Mora,61.015456,14.586175
Skålmyrsvägen 35,Mora,Mora,61.008361,14.590383
Kyrkogatan 18,Mora,Mora,61.004745,14.538033
Kyrkogatan 2,Orsa,Orsa,61.121231,14.619892
Kyrkogatan 5,Orsa,Orsa,61.120487,14.619258
Torget 4,Rättvik,Rättvik,60.886017,15.117801
Strandvägen 1,Furudal,Rättvik,61.173449,15.167258
Hamngatan 2,Smedjebacken,Smedjebacken,60.140278,15.410994
Gränsgatan 1,Säter,Säter,60.346774,15.752807
Vasagatan 6,Säter,Säter,60.346372,15.751712
Stationsvägen 1,Dala-Järna,Vansbro,60.547456,14.364893
Järnvägsgatan 27,Vansbro,Vansbro,60.510445,14.226533
Bryggargatan 2,Vansbro,Vansbro,60.508351,14.225765
HSB-vägen 1,Idre,Älvdalen,61.857942,12.720636
Dalgatan 81,Älvdalen,Älvdalen,61.229499,14.037394
S:t Göransgatan 5,Visby,Gotland,57.648047,18.30067
Skarphällsgatan 4,Visby,Gotland,57.633626,18.326593
Fårövägen 10,Fårösund,Gotland,57.863225,19.054592
Kung Magnus väg 6,Visby,Gotland,57.637821,18.299504
Tjelvarvägen 8,Visby,Gotland,57.633612,18.311251
Adelsgatan 13,Visby,Gotland,57.636357,18.29333
Donnersgatan 2,Klintehamn,Gotland,57.386055,18.199778
Österväg 10,Visby,Gotland,57.637256,18.300836
Tullhagsplan 5,Slite,Gotland,57.704354,18.80362
Södervägen 6,Visby,Gotland,57.633856,18.29068
Storgatan 57,Hemse,Gotland,57.239707,18.376217
Visbyvägen 35,Romakloster,Gotland,57.504631,18.455871
Stenkumlavägen 36,Visby,Gotland,57.61733,18.284371
Gråbo torg 1,Visby,Gotland,57.619853,18.301545
Österväg 5,Visby,Gotland,57.637889,18.300231
Västra stationsgatan 7,Bollnäs,Bollnäs,61.348535,16.394004
Långgatan 11,Bollnäs,Bollnäs,61.347662,16.393834
Stationsgatan 14,Kilafors,Bollnäs,61.230552,16.564222
Storgatan 26,Arbrå,Bollnäs,61.470483,16.377641
Järnvägsgatan 13,Bollnäs,Bollnäs,61.350231,16.392328
Södra skeppsbron 17,Gävle,Gävle,60.677943,17.165313
Norra kungsgatan 5,Gävle,Gävle,60.674324,17.144103
Norra Slottsgatan 4,Gävle,Gävle,60.673765,17.142612
Valbovägen 307,Valbo,Gävle,60.633993,16.989866
Ingenjörsgatan,Gävle,Gävle,60.6457678901293,17.145280301076
Drottninggatan 9,Gävle,Gävle,60.67402,17.140977
Nygatan 15,Gävle,Gävle,60.674671,17.139522
Vijvägen 38,Bergby,Gävle,60.92943,17.041117
Klockar-Calles gata 5,Gävle,Gävle,60.67554,17.213688
Sjätte tvärgatan 26,Gävle,Gävle,60.671879,17.167759
Rullstensvägen 4,Gävle,Gävle,60.691732,17.117683
Vinddraget 28,Gävle,Gävle,60.652323,17.138511
Lasarettsvägen 5,Gävle,Gävle,60.676599,17.118216
Atlasgatan 42,Gävle,Gävle,60.669016,17.179761
Nygatan 25,Gävle,Gävle,60.67537,17.142208
Brunnsgatan 66,Gävle,Gävle,60.670293,17.149213
Norra kansligatan 14,Gävle,Gävle,60.675912,17.141437
Dannemansvägen 4-6,Furuvik,Gävle,60.652673,17.332916
Centralplan 2,Gävle,Gävle,60.676284,17.150349
Nygatan 21,Gävle,Gävle,60.675168,17.14152
Centralgatan 17,Hofors,Hofors,60.546684,16.286974
Storgatan 35,Hudiksvall,Hudiksvall,61.727737,17.10874
Storgatan 27,Hudiksvall,Hudiksvall,61.727779,17.105242
Edevägen 3,Delsbo,Hudiksvall,61.799147,16.55308
Forsavägen 15,Forsa,Hudiksvall,61.717806,16.970448
Storgatan 28,Hudiksvall,Hudiksvall,61.727577,17.107674
Guldsmedens Köpcentrum,Hudiksvall,Hudiksvall,61.728683,17.110002
Skolgatan 1,Iggesund,Hudiksvall,61.643573,17.074332
Storgatan 24,Hudiksvall,Hudiksvall,61.727458,17.10502
Turistvägen 37,Järvsö,Ljusdal,61.715841,16.169416
Härjedalsvägen 151,Färila,Ljusdal,61.799125,15.841217
Bokhandlargränd 3,Ljusdal,Ljusdal,61.82824,16.094996
Bokhandlargränd 1,Ljusdal,Ljusdal,61.827969,16.094752
Norra järnvägsgatan 39,Ljusdal,Ljusdal,61.827729,16.095946
Turistvägen 45,Järvsö,Ljusdal,61.717816,16.169485
Storgatan 9,Bergsjö,Nordanstig,61.983422,17.060937
Storgatan 21,Bergsjö,Nordanstig,61.985272,17.058336
Södra åsgatan 30 C,Ockelbo,Ockelbo,60.890952,16.716985
Långgatan 44 E,Alfta,Ovanåker,61.346303,16.067765
Långgatan 12,Edsbyn,Ovanåker,61.375008,15.818624
Hyttgatan 18,Sandviken,Sandviken,60.619356,16.776836
Odengatan 40,Sandviken,Sandviken,60.622272,16.775562
Hyttgatan 29,Sandviken,Sandviken,60.620993,16.775377
Björksätra centrum,Sandviken,Sandviken,60.621789,16.777545
Hyttgatan 21,Sandviken,Sandviken,60.619918,16.775893
Tingsgatan 5,Storvik,Sandviken,60.583171,16.531281
Hyttgatan 37,Sandviken,Sandviken,60.622738,16.774805
Köpmangatan 5,Söderhamn,Söderhamn,61.302743,17.056333
Turbinvägen 4,Ljusne,Söderhamn,61.210842,17.126233
Köpmangatan 13,Söderhamn,Söderhamn,61.302798,17.056212
Stickvägen 5,Söderhamn,Söderhamn,61.295502,17.019367
Kungsgatan 11,Söderhamn,Söderhamn,61.303843,17.055459
Nygatan 29,Falkenberg,Falkenberg,56.904501,12.490884
Danska vägen 10,Ullared,Falkenberg,57.135255,12.713639
Stortorget 1,Falkenberg,Falkenberg,56.905536,12.492112
Danska vägen 13,Ullared,Falkenberg,57.134223,12.714334
Hjortvägen 1,Falkenberg,Falkenberg,56.886493,12.511643
Nygatan 38,Falkenberg,Falkenberg,56.903773,12.490916
Varbergsvägen 5,Ullared,Falkenberg,57.135304,12.71559
Televägen 9,Ätran,Falkenberg,57.121643,12.948196
Nygatan 42,Falkenberg,Falkenberg,56.903239,12.490689
Boråsvägen 3,Ullared,Falkenberg,57.139346,12.722152
Köpmansgatan 3,Halmstad,Halmstad,56.673931,12.856369
Brogatan 10,Halmstad,Halmstad,56.674475,12.857403
Prästvägen 1,Halmstad,Halmstad,56.655796,12.90965
Kristians IV:es väg 3,Halmstad,Halmstad,56.664822,12.877917
Storgatan 20,Halmstad,Halmstad,56.674687,12.858493
Brogatan 14,Getinge,Halmstad,56.674534,12.856603
Lasarettsvägen 1,Halmstad,Halmstad,56.67959,12.851393
PRÄSTVÄGEN 1,Halmstad,Halmstad,56.655796,12.90965
Storgatan 8,Halmstad,Halmstad,56.673644,12.858119
Vallås centrum 1,Halmstad,Halmstad,56.6782716219625,12.9095522632096
Nyhemsgatan 2,Halmstad,Halmstad,56.668528,12.874814
Ågatan 27,Oskarström,Halmstad,56.801676,12.975056
Jutaplatsen 3,Halmstad,Halmstad,56.660423,12.80494
Klammerdammsgatan 8,Halmstad,Halmstad,56.675148,12.857278
Storgatan 12,Halmstad,Halmstad,56.673868,12.858197
ICA Maxi,Halmstad,Halmstad,56.673395,12.891215
Storgatan 16,Hyltebruk,Hylte,56.998826,13.239075
Gamla Nissastigen 19 C,Torup,Hylte,57.003575,13.235416
Torget 3,Unnaryd,Hylte,56.954426,13.529433
Storgatan 20,Hyltebruk,Hylte,56.99827,13.238541
Storgatan 20,Kungsbacka,Kungsbacka,57.489516,12.079417
Östergatan 2 B,Kungsbacka,Kungsbacka,57.486221,12.0785
Kungsparksvägen 80,Kungsbacka,Kungsbacka,57.513632,12.075637
Furubergsvägen 6,Särö,Kungsbacka,57.520306,11.966555
Vallgatan 3,Kungsbacka,Kungsbacka,57.488899,12.077225
Borgmästaregatan 5D,Kungsbacka,Kungsbacka,57.49194,12.072469
Borgmästaregatan 5 D,Kungsbacka,Kungsbacka,57.49151,12.075021
Borgmästaregatan 5,Kungsbacka,Kungsbacka,57.49151,12.075021
Kungsporten 6 B,Billdal,Kungsbacka,57.56073,11.961608
Torstensviksvägen 3,Frillesås,Kungsbacka,57.316554,12.174013
Kyviks äng 45,Kullavik,Kungsbacka,57.546729,11.946376
Nygatan 10,Kungsbacka,Kungsbacka,57.485209,12.076645
Onsala kyrkby 3,Onsala,Kungsbacka,57.413442,12.019156
Storgatan 8,Laholm,Laholm,56.512993,13.042225
Möllevägen 1,Hishult,Laholm,56.426658,13.316458
Dalavägen 1,Knäred,Laholm,56.517384,13.317064
Köpmansgatan 3,Laholm,Laholm,56.514149,13.043493
Söderleden 1,Mellbystrand,Laholm,56.502832,12.956716
Bygatan 13,Våxtorp,Laholm,56.416916,13.121379
Östertullsgatan 5,Laholm,Laholm,56.512295,13.043865
Söderleden 3,Mellbystrand,Laholm,56.502404,12.956536
Drottninggatan 25,Varberg,Varberg,57.105298,12.251509
Torggatan 2,Varberg,Varberg,57.105601,12.248668
Monarkvägen 2,Varberg,Varberg,57.116648,12.257557
Västra vallgatan 4,Varberg,Varberg,57.105489,12.248274
STRANDBACKAVÄGEN 93,Träslövsläge,Varberg,57.059274,12.275642
Fastarpsvägen 38,Tvååker,Varberg,57.042292,12.397567
Träslövsvägen 1,Varberg,Varberg,57.111017,12.305151
Bäckgatan 16,Varberg,Varberg,57.104814,12.250518
Bäckgatan 16-18,Varberg,Varberg,57.113427,12.267695
Otto Torells gata 16,Varberg,Varberg,57.107965,12.244803
Håstens torg,Varberg,Varberg,57.1121065495364,12.2786560224048
Västra vallgatan 2,Varberg,Varberg,57.105973,12.248382
Viskastigen 38,Veddige,Varberg,57.267453,12.336061
Buavägen 30,Väröbacka,Varberg,57.236645,12.125672
Torggatan 26,Varberg,Varberg,57.10523,12.253753
Buavägen 30,Bua,Varberg,57.236645,12.125672
Södra Hamnvägen 16,Varberg,Varberg,57.1062,12.247477
Centrumvägen 8C,Svenstavik,Berg,62.767417,14.432978
Myrviksvägen 26,Oviken,Berg,62.99874,14.340009
Sandnäsvägen 59,Rätan,Berg,62.462531,14.536125
Hantverksvägen 24,Bräcke,Bräcke,-33.881369,18.697916
Storgatan 16,Hede,Härjedalen,62.418163,13.511943
Rörosvägen 17,Funäsdalen,Härjedalen,62.546484,12.541395
Fjällvägen 4,Sveg,Härjedalen,62.03285,14.359106
Ångevägen 1,Ytterhogdal,Härjedalen,62.174758,14.936959
Härjulfs väg 1,Lillhärdal,Härjedalen,61.851128,14.074108
Genvägen 6,Krokom,Krokom,63.326778,14.451302
Storgatan 4,Föllinge,Krokom,63.671519,14.612277
Centralvägen 18A,Offerdal,Krokom,63.457649,14.064836
Forsvägen 33,Bispgården,Ragunda,63.026976,16.625712
Centralgatan 14,Hammarstrand,Ragunda,63.109531,16.354284
Gjurds väg 6 A,Stugun,Ragunda,63.168194,15.596799
Vattudalstorget 7,Strömsund,Strömsund,63.851951,15.558569
Storgatan 5,Strömsund,Strömsund,63.851591,15.558867
Storgatan 16,Hoting,Strömsund,64.116776,16.203338
Norgevägen 6,Gäddede,Strömsund,64.49904,14.140453
Storgatan 38A,Hammerdal,Strömsund,63.854062,15.569107
Lövbergavägen 8B,Strömsund,Strömsund,63.852733,15.558137
Strandvägen 1,Järpen,Åre,63.346023,13.459449
Årevägen 74,Åre,Åre,63.399569,13.080322
Sankt Olavs väg 33,Åre,Åre,63.398954,13.076442
Kyrkgatan 66,Östersund,Östersund,63.175807,14.638687
Chaufförvägen 27 A,Östersund,Östersund,63.174264,14.69448
Centrumvägen 15,Brunflo,Östersund,63.081576,14.824678
Önevägen 146,Frösön,Östersund,63.168514,14.574749
Barkvägen 4,Östersund,Östersund,63.158383,14.741887
Kyrkgatan 64,Östersund,Östersund,63.176351,14.638538
Storgatan 36,Östersund,Östersund,63.177204,14.635211
Prästgatan 25,Östersund,Östersund,63.178866,14.636819
Fjällgatan 4,Frösön,Östersund,63.182896,14.618242
Prästgatan 51,Östersund,Östersund,63.175121,14.637538
Slåttervägen 31,Östersund,Östersund,63.15558,14.682999
Kyrkgatan 12,Östersund,Östersund,63.18402,14.637145
Prästgatan 21,Östersund,Östersund,63.179306,14.636758
Norra Torlandsgatan 18,Östersund,Östersund,63.1703,14.662138
Chaufförsvägen 27 A,Östersund,Östersund,63.174264,14.69448
Prästgatan 18,Östersund,Östersund,63.179627,14.6364
Prästgatan 48,Östersund,Östersund,63.175146,14.637163
Centrumvägen 20,Brunflo,Östersund,63.081154,14.824635
Strömsundsvägen 14,Häggenås,Östersund,63.390649,14.907324
Storgatan 50,Aneby,Aneby,57.838917,14.818339
Södra storgatan 14d,Eksjö,Eksjö,57.666441,14.972097
Södra storgatan 12,Eksjö,Eksjö,57.666287,14.972
Stortorget 1,Mariannelund,Eksjö,69.651673,18.96033
Storgatan 6,Anderstorp,Gislaved,57.281517,13.629343
Stortorget 2,Gislaved,Gislaved,57.306022,13.546716
Mogatan 17,Hestra,Gislaved,57.444004,13.596343
Torget 7,Reftele,Gislaved,57.174183,13.594033
Centrumplan 6,Smålandsstenar,Gislaved,57.162207,13.413434
Storgatan 8,Burseryd,Gislaved,57.202383,13.284187
Köpmangatan 1 E,Gislaved,Gislaved,57.302154,13.540182
Torggatan 1,Smålandsstenar,Gislaved,57.30285,13.537768
Regeringsgatan 18,Gislaved,Gislaved,57.301274,13.539038
Bankgatan 5,Gnosjö,Gnosjö,57.357441,13.73517
Storgatan 7 B,Hillerstorp,Gnosjö,57.315975,13.881696
Storgatan 12,Gnosjö,Gnosjö,57.357109,13.733486
Jönköpingsvägen 12,Habo,Habo,57.907472,14.075894
Jönköpingsvägen 4,Habo,Habo,57.908579,14.073728
Kompanigatan 36,Jönköping,Jönköping,57.774691,14.20339
Trädgårdsgatan 2 A,Jönköping,Jönköping,57.78315,14.161681
Lantmätargränd 10,Jönköping,Jönköping,57.781894,14.173681
Kungsgatan 23,Huskvarna,Jönköping,57.791023,14.276334
Kompanigatan 16,Jönköping,Jönköping,57.774562,14.205894
Gjuterigatan 5,Jönköping,Jönköping,57.778298,14.163314
Klostergatan 55,Jönköping,Jönköping,57.774356,14.153769
Östra storgatan 3,Jönköping,Jönköping,57.782912,14.170259
Drottninggatan 14,Huskvarna,Jönköping,57.792493,14.276467
Västra storgatan 16,Jönköping,Jönköping,57.783893,14.162117
Södra strandgatan 13,Jönköping,Jönköping,57.781602,14.17095
Östra storgatan 2,Jönköping,Jönköping,57.782606,14.169742
Postgatan 2 A,Bankeryd,Jönköping,57.859976,14.125087
Brahegatan 35,Gränna,Jönköping,58.021517,14.465765
Kungsgatan 37,Huskvarna,Jönköping,57.790171,14.273527
Elmiavägen 1,Jönköping,Jönköping,57.785118,14.228018
Hoppets torg 4,Jönköping,Jönköping,57.782286,14.169868
Sjukhusgatan,Jönköping,Jönköping,57.7724919664029,14.1964231556464
Barnarpsgatan 8,Jönköping,Jönköping,57.78307,14.163292
Klostergatan 25,Jönköping,Jönköping,57.778222,14.156623
Birkagatan 8,Jönköping,Jönköping,57.786791,14.243115
Sparvhöksgatan 1,Jönköping,Jönköping,57.739485,14.151906
Postgatan 8 C,Norrahammar,Jönköping,57.704125,14.11821
Bergslagsvägen 33,Taberg,Jönköping,57.677551,14.088214
Barnarpsgatan 21,Jönköping,Jönköping,57.781886,14.1629
Lantmätargränd 53,Jönköping,Jönköping,57.780618,14.173136
Järnvägsgatan 29,Mullsjö,Mullsjö,57.91542,13.883129
Stortorget 1,Nässjö,Nässjö,57.653173,14.69587
Rådhusgatan 23,Nässjö,Nässjö,57.652601,14.69801
Storgatan 38,Nässjö,Nässjö,57.65428,14.694482
Rådhusgatan 29,Nässjö,Nässjö,57.654244,14.695982
Östra järnvägsgatan 18,Sävsjö,Sävsjö,57.401186,14.66525
Jönköpingsvägen 4,Vrigstad,Sävsjö,57.355813,14.473545
Bankgatan 2,Tranås,Tranås,58.034546,14.97434
Storgatan 28,Tranås,Tranås,58.035146,14.976466
Storgatan 45,Tranås,Tranås,58.036515,14.977261
Östra Järnvägsgatan 10,Tranås,Tranås,58.037691,14.976019
Järnvägsgatan 12,Vaggeryd,Vaggeryd,57.498363,14.147517
Järnvägsgatan 1,Vaggeryd,Vaggeryd,57.498562,14.149026
Storgatan 6,Skillingaryd,Vaggeryd,57.502347,14.143916
Storgatan 6,Vetlanda,Vetlanda,57.426473,15.085122
Lasarettsgatan 3,Vetlanda,Vetlanda,57.425531,15.087423
Storgatan 3 A,Vetlanda,Vetlanda,57.426017,15.086156
Storgatan 4,Vetlanda,Vetlanda,57.426403,15.085394
Vitalagatan 11,Vetlanda,Vetlanda,57.426256,15.090289
Bangårdsgatan 9,Vetlanda,Vetlanda,57.425831,15.082761
Lasarettsgatan 3,Värnamo,Värnamo,57.185578,14.041725
Norregårdsvägen 4,Bredaryd,Värnamo,57.073032,13.991704
Storgatan 24,Värnamo,Värnamo,57.18455,14.042347
Storgatsbacken 17,Värnamo,Värnamo,57.185467,14.040106
Västra storgatan 18,Rydaholm,Värnamo,56.986171,14.305776
Storgatsbacken 23,Värnamo,Värnamo,57.185079,14.04109
Storgatan 37,Värnamo,Värnamo,57.184165,14.046641
Malmövägen 12,Värnamo,Värnamo,57.179234,14.058867
Köpmansgatan 3,Värnamo,Värnamo,57.184448,14.040828
Storgatan 17,Borgholm,Borgholm,56.879436,16.657156
STORGATAN 15,Borgholm,Borgholm,56.879369,16.656808
Löttorpsvägen 51,Löttorp,Borgholm,57.165819,16.993632
Storgatan 15,Borgholm,Borgholm,56.879369,16.656808
Järnvägsgatan 24,Emmaboda,Emmaboda,56.629948,15.538303
Storgatan 8,Virserum,Hultsfred,57.319593,15.581137
Bryggerigatan 2,Hultsfred,Hultsfred,57.487849,15.843172
Bryggerigatan 1,Hultsfred,Hultsfred,57.487647,15.843155
Västra Långgatan 46,Hultsfred,Hultsfred,57.488423,15.841373
Storgatan 41,Högsby,Högsby,57.163455,16.028175
Polhemsgatan 7,Kalmar,Kalmar,56.670728,16.337881
Västra sjögatan 16,Kalmar,Kalmar,56.664776,16.364541
Storgatan 17,Kalmar,Kalmar,56.663339,16.362672
Skeppsbrogatan 12,Kalmar,Kalmar,56.661095,16.365097
Storgatan 16,Kalmar,Kalmar,56.663207,16.363295
Bilbyggarvägen 9,Kalmar,Kalmar,56.683732,16.317451
Storgatan 25,Kalmar,Kalmar,56.663737,16.364029
Verkstadsgatan 6,Kalmar,Kalmar,56.669395,16.338808
Drottning Margaretas väg 23,Kalmar,Kalmar,56.660163,16.339749
Rimsmedsvägen 17,Kalmar,Kalmar,56.691907,16.339328
Kanngjutarevägen 4,Kalmar,Kalmar,56.735784,16.296535
Norra långgatan 30,Kalmar,Kalmar,56.664184,16.363849
Norra långgatan 25,Kalmar,Kalmar,56.66432,16.363639
Norra Långgatan 31,Kalmar,Kalmar,56.664682,16.364835
Kalmarvägen 111,Kalmar,Kalmar,56.734545,16.295967
Norra Långgatan 16,Kalmar,Kalmar,56.663632,16.361758
Polhemsgatan 11,Kalmar,Kalmar,56.671164,16.33656
Storgatan 112,Blomstermåla,Mönsterås,56.981465,16.332194
Storgatan 44,Mönsterås,Mönsterås,57.044055,16.446904
Brovägen,Färjestaden,Mörbylånga,56.6554602,16.4785551
ÖLANDS KÖPSTAD,Färjestaden,Mörbylånga,56.652029,16.469574
Köpmangatan 15,Mörbylånga,Mörbylånga,56.526633,16.377846
Brovägen 1,Färjestaden,Mörbylånga,56.6554602,16.4785551
Storgatan 5,Nybro,Nybro,56.744206,15.907842
Storgatan 12,Nybro,Nybro,56.744051,15.908459
Torget 1,Nybro,Nybro,56.744663,15.906526
Lilla torget 8,Oskarshamn,Oskarshamn,57.265746,16.446518
Flanaden 8,Oskarshamn,Oskarshamn,57.26491,16.446958
Hantverksgatan 3,Oskarshamn,Oskarshamn,57.262783,16.447235
Flanaden,Oskarshamn,Oskarshamn,57.264825,16.446214
Ficksjövägen 44,Fårbo,Oskarshamn,57.374741,16.490655
Allfargatan 20,Torsås,Torsås,56.412459,15.999807
Sevedegatan 37,Vimmerby,Vimmerby,57.666631,15.854386
Lundgatan,Vimmerby,Vimmerby,57.6699013445998,15.8498323455471
Rönnbärsgatan 26,Vimmerby,Vimmerby,57.666631,15.854386
Sevedegatan 34,Vimmerby,Vimmerby,57.666192,15.853765
Magasinsgatan 4,Vimmerby,Vimmerby,57.668097,15.84988
Kvarngatan 16,Västervik,Västervik,57.758124,16.639818
Västra kyrkogatan 34,Västervik,Västervik,57.757707,16.634822
Kungsvägen 23,Ankarsrum,Västervik,57.699612,16.334747
Karl-Erik Månssons Torg 1 D,Gamleby,Västervik,57.897842,16.401354
Kvarngatan 20,Västervik,Västervik,57.757887,16.638726
Allén 62,Västervik,Västervik,57.760915,16.611137
Johannesdalsplan,Västervik,Västervik,57.7481565345755,16.6517107807583
Fiskaretorget 1,Västervik,Västervik,57.759227,16.637896
Bredgatan 13,Västervik,Västervik,57.757725,16.639321
Kungsvägen 42 A,Ankarsrum,Västervik,57.698591,16.336308
Värendsgatan 10,Alvesta,Alvesta,56.899915,14.554507
Myntvägen 16,Grimslöv,Alvesta,56.736636,14.542989
Storgatan 16,Alvesta,Alvesta,56.900009,14.556384
Bruksgatan 6,Lessebo,Lessebo,56.750386,15.268918
Stora Vägen 49,Kosta,Lessebo,56.84367,15.395707
Oxtorget 1,Ljungby,Ljungby,56.843028,13.967256
Stora torget 1,Ljungby,Ljungby,56.833364,13.939882
Storgatan 8,Ljungby,Ljungby,56.83365,13.93729
Unnarydsvägen 1A,Lidhult,Ljungby,56.845738,13.441784
Kungsgatan 32 C,Markaryd,Markaryd,56.461303,13.596892
Drottninggatan 5,Markaryd,Markaryd,56.461558,13.595299
Lagastigsgatan 28,Strömsnäsbruk,Markaryd,56.549438,13.731779
Brunnsgatan 1,Ryd,Tingsryd,56.464037,14.693832
Skyttegatan 4,Tingsryd,Tingsryd,56.525116,14.979828
Olofsgatan 4,Åseda,Uppvidinge,57.169932,15.344984
P G Vejdes väg 27,Växjö,Växjö,56.855064,14.827747
Kronobergsgatan 12,Växjö,Växjö,56.878622,14.810364
Nylandavägen 9,Växjö,Växjö,56.918585,14.731931
Strandvägen 8,Växjö,Växjö,56.874687,14.80757
Kungsgatan 5,Växjö,Växjö,56.877679,14.808361
Skogsuddevägen 1,Växjö,Växjö,56.859768,14.819719
Storgatan 40,Växjö,Växjö,56.879272,14.79977
Smedsvängen 70,Växjö,Växjö,56.852869,14.820906
Köpmannagatan 5,Lammhult,Växjö,57.169909,14.580642
Kungsgatan 1 A,Växjö,Växjö,56.877193,14.808057
Höstvägen 4,Växjö,Växjö,56.890609,14.796385
Norremarksvägen 1,Växjö,Växjö,56.902484,14.82966
Storgatan 22,Växjö,Växjö,56.878953,14.804614
Lagergatan 5,Växjö,Växjö,56.884339,14.766837
Bäckgatan 17,Växjö,Växjö,56.879209,14.80507
Norra Järnvägsgatan 7,Växjö,Växjö,56.876845,14.807685
Norra esplanaden 6,Älmhult,Älmhult,56.552286,14.14084
Norra Esplanaden 13,Älmhult,Älmhult,56.553611,14.141011
Storgatan 15 B,Arjeplog,Arjeplog,66.052331,17.892639
Storgatan 23,Arvidsjaur,Arvidsjaur,65.592523,19.176712
Storgatan 15 B,Arvidsjaur,Arvidsjaur,65.593347,19.174215
Storgatan 15B,Arvidsjaur,Arvidsjaur,65.593186,19.174841
Storgatan 90,Glommersträsk,Arvidsjaur,65.260784,19.634043
Kungsgatan 34,Boden,Boden,65.825196,21.688402
Drottninggatan 1,Boden,Boden,65.824737,21.688316
Kungsgatan 42,Boden,Boden,65.825079,21.684967
Drottninggatan 4,Boden,Boden,65.824302,21.68691
Edeforsvägen 41,Harads,Boden,66.085125,20.952485
Storgatan 4,Gällivare,Gällivare,67.135312,20.656148
Storgatan 8,Gällivare,Gällivare,67.134874,20.657641
Torget 17,Malmberget,Gällivare,67.176094,20.660068
Storgatan 5,Gällivare,Gällivare,67.135257,20.657181
Storgatan 76,Haparanda,Haparanda,65.835199,24.139366
Norrskensvägen 4,Haparanda,Haparanda,65.844695,24.127108
Hästskovägen 2,Haparanda,Haparanda,65.842066,24.118902
Allévägen 1,Seskarö,Haparanda,65.73792,23.738987
Berggatan 9,Jokkmokk,Jokkmokk,66.607144,19.828909
Bodenvägen 14 A,Vuollerim,Jokkmokk,66.430237,20.600801
Strömgatan 25,Porjus,Jokkmokk,66.955896,19.804895
Strandgatan 26,Kalix,Kalix,65.854495,23.146399
Strandgatan 10,Kalix,Kalix,65.855146,23.139526
Strandgatan 15,Kalix,Kalix,65.855641,23.14078
Föreningsgatan 9,Kiruna,Kiruna,67.854607,20.225492
Lars Janssongatan 18,Kiruna,Kiruna,67.855127,20.226198
Österleden 12,Kiruna,Kiruna,67.845265,20.253372
Gästisvägen 5,Vittangi,Kiruna,67.675121,21.631219
Laestadiusvägen 49A,Karesuando,Kiruna,68.439305,22.460314
Kirunavägen 14,Svappavaara,Kiruna,67.648338,21.046002
Torggatan 9C,Kiruna,Kiruna,67.849459,20.308055
Stadsötorget 9,Gammelstad,Luleå,65.641653,22.013924
Storhedsvägen 1,Luleå,Luleå,65.618172,22.041709
Kungsgatan 21,Luleå,Luleå,65.58504,22.156304
Storgatan 36,Luleå,Luleå,65.58412,22.152694
Storgatan 42,Luleå,Luleå,65.584362,22.154831
Storgatan 27,Luleå,Luleå,65.584104,22.149987
Universitetsväg 11 C,Luleå,Luleå,65.617961,22.144928
Sjukhusvägen 10,Luleå,Luleå,65.584533,22.151808
"Kårhuset, kårhusgränd 3",Luleå,Luleå,65.617622,22.133164
Köpmangatan 34,Luleå,Luleå,65.583502,22.153177
Rödkallens väg 5,Luleå,Luleå,65.578212,22.19833
Robertsviksgatan 7,Luleå,Luleå,65.592173,22.153765
Väderleden 41,Luleå,Luleå,65.615199,22.177329
Bondbovägen 2 B,Råneå,Luleå,65.855539,22.289233
Delfingatan 4,Luleå,Luleå,65.594492,22.149433
Storgatan 33,Luleå,Luleå,65.584202,22.150951
Myntgatan 2,Pajala,Pajala,67.210985,23.369233
Kangasvägen 5,Junosuando,Pajala,67.42925,22.495829
Telegatan 2,Korpilombolo,Pajala,66.849199,23.059691
Storbyvägen 1,Tärendö,Pajala,67.17139,22.613396
Hamnplan 9,Piteå,Piteå,65.315189,21.477721
Uddmansgatan 10,Piteå,Piteå,65.317726,21.480836
Hamngatan 54,Piteå,Piteå,65.316766,21.477732
Storgatan 43,Piteå,Piteå,65.316457,21.481435
Storgata 43,Piteå,Piteå,65.316457,21.481435
Pitholmsgatan 4,Piteå,Piteå,65.285152,21.498161
Kringtorpsvägen 1,Roknäs,Piteå,65.340113,21.229084
Öjagatan 33,Öjebyn,Piteå,65.341883,21.396161
Storgatan 67,Piteå,Piteå,65.317874,21.476802
Lånegränd 5,Rosvik,Piteå,65.431046,21.690811
Storgatan 19,Älvsbyn,Älvsbyn,65.673606,21.008358
Storgatan 12,Älvsbyn,Älvsbyn,65.673589,21.009386
Östra Vidselsvägen 2,Vidsel,Älvsbyn,65.830828,20.521719
Storgatan 6,Överkalix,Överkalix,66.328722,22.842125
Matarengivägen 27,Övertorneå,Övertorneå,66.389111,23.657371
Byvägen 47,Juoksengi,Övertorneå,66.568074,23.849418
Storgatan 14,Ekeby,Bjuv,56.000753,12.972895
Norra storgatan 6,Bjuv,Bjuv,56.086095,12.916136
Norra Storgatan 6,Bjuv,Bjuv,56.086095,12.916136
Storgatan 31,Bromölla,Bromölla,56.073627,14.467336
Storgatan 42,Bromölla,Bromölla,56.074203,14.467384
Dalbyvägen 25,Arlöv,Burlöv,55.632558,13.073417
Kronetorpsvägen 2,Arlöv,Burlöv,55.640647,13.084697
Köpmansgatan 11,Båstad,Båstad,56.432074,12.837713
Köpmansgatan 70 a,Båstad,Båstad,56.427255,12.847433
Köpmansgatan 28,Båstad,Båstad,56.430812,12.839158
Mercurivägen 2,Förslöv,Båstad,56.349191,12.816535
Mercurivägen 1A,Förslöv,Båstad,56.348933,12.81603
Stora torg 8,Eslöv,Eslöv,55.839074,13.303022
Stora torg 2,Eslöv,Eslöv,55.839416,13.303352
Hörbyvägen 3,Löberöd,Eslöv,55.775371,13.511877
Storgatan 18 A,Eslöv,Eslöv,55.837915,13.304393
Christian Nils väg 1,Eslöv,Eslöv,55.828814,13.287546
Södergatan 2,Eslöv,Eslöv,55.838683,13.303144
Järnvägsgatan 8,Helsingborg,Helsingborg,56.043026,12.696391
Södra stenbocksgatan 125,Helsingborg,Helsingborg,56.040958,12.711508
Marknadsvägen 1,Ödåkra,Helsingborg,56.09365,12.759039
Landskronavägen 25a,Helsingborg,Helsingborg,55.979212683227,12.7574425222026
Landskronavägen 25A,Helsingborg,Helsingborg,55.979212683227,12.7574425222026
Stortorget 2,Helsingborg,Helsingborg,56.046115,12.693618
Gasverksgatan 9,Helsingborg,Helsingborg,56.040953,12.699075
Nelly Krooks gata 10,Helsingborg,Helsingborg,56.0571633896635,12.7005282198926
Stortorget 7,Helsingborg,Helsingborg,56.046662,12.693716
KUNGSTORGET 8,Helsingborg,Helsingborg,56.044466,12.693987
Södra vallgatan 5,Helsingborg,Helsingborg,56.046347,12.704917
Järnvägsgatan 5,Helsingborg,Helsingborg,56.045578,12.693937
Jönköpingsgatan 25,Helsingborg,Helsingborg,56.046142,12.720208
Garnisonsgatan 7 A,Helsingborg,Helsingborg,56.07195,12.722724
Rååvägen 24,Råå,Helsingborg,55.999282,12.740478
Kullagatan 26,Helsingborg,Helsingborg,56.048326,12.692976
Hälsovägen 47,Helsingborg,Helsingborg,56.057097,12.701332
Drottningg 28,Helsingborg,Helsingborg,56.048144,12.691462
Marknadsvägen 9,Ödåkra,Helsingborg,56.092055,12.756816
Örebrogatan 32,Helsingborg,Helsingborg,56.044619,12.721241
Södergatan 15,Helsingborg,Helsingborg,56.04052,12.702245
Frösögatan 7,Rydebäck,Helsingborg,55.96629,12.775027
Kungstorget 8,Helsingborg,Helsingborg,56.044466,12.693987
Södergatan 30,Helsingborg,Helsingborg,56.040756,12.701606
Första avenyen 1,Hässleholm,Hässleholm,56.157929,13.764558
Norra vägen 2,Bjärnum,Hässleholm,56.291613,13.710386
Frykholmsgatan 4,Hässleholm,Hässleholm,56.158671,13.766051
Industrigatan 1,Hässleholm,Hässleholm,56.164507,13.780951
Östra järnvägsgatan 7,Hästveda,Hässleholm,56.286843,13.934529
Bankgatan 1,Sösdala,Hässleholm,56.035883,13.678264
Torggatan 2,Tyringe,Hässleholm,56.158742,13.770497
Torget 9,Vinslöv,Hässleholm,56.103648,13.916011
Hässleholmsvägen 27,Vittsjö,Hässleholm,56.340065,13.663962
Andra avenyen 14,Hässleholm,Hässleholm,56.155907,13.766675
Första Avenyen 7 A,Hässleholm,Hässleholm,56.157461,13.766888
Storgatan 63 A,Höganäs,Höganäs,56.199664,12.560136
Storgatan 44,Höganäs,Höganäs,56.20028,12.564229
Storgatan 77 a,Höganäs,Höganäs,56.199383,12.555455
Storgatan 60,Höganäs,Höganäs,56.200155,12.559657
Storgatan 12,Hörby,Hörby,55.851848,13.66234
Nygatan 22,Hörby,Hörby,55.853054,13.660429
Nya torg 10,Höör,Höör,55.935015,13.538471
Storgatan 42,Höör,Höör,55.935285,13.540741
Allégatan 17,Klippan,Klippan,56.135085,13.131433
Storgatan 38,Klippan,Klippan,56.13543,13.131631
Ängelholmsgatan 25,Klippan,Klippan,56.130911,13.12848
Östra boulevarden 38,Kristianstad,Kristianstad,56.030678,14.157733
Västra storgatan 44,Kristianstad,Kristianstad,56.029234,14.155988
Spängervägen 1,Arkelstorp,Kristianstad,56.174173,14.286027
Tingsvägen 25,Degeberga,Kristianstad,55.837733,14.090456
Gamla vägen 94,Fjälkinge,Kristianstad,56.043084,14.277841
Cardellsgatan 12,Kristianstad,Kristianstad,56.02966,14.157151
Östra Boulevarden 52,Kristianstad,Kristianstad,56.029832,14.158438
Näsbychaussén 70,Kristianstad,Kristianstad,56.05526,14.159496
Rosengårdsvägen 2,Kristianstad,Kristianstad,56.043848,14.151861
Sjöcronas gata 7,Kristianstad,Kristianstad,56.025864,14.167809
Långebrogatan 36,Kristianstad,Kristianstad,56.022332,14.149853
Ubbes väg 3,Kristianstad,Kristianstad,56.001963,14.096444
J A Hedlunds väg 5,Kristianstad,Kristianstad,56.029862,14.173916
Tollarps storgata 6,Tollarp,Kristianstad,55.932381,13.975469
Järnvägsgatan 4,Åhus,Kristianstad,55.927467,14.296121
Köpmannagatan 4,Åhus,Kristianstad,55.926021,14.300837
Östra boulevarden 54,Kristianstad,Kristianstad,56.029729,14.158541
Fundationsvägen 17,Kristianstad,Kristianstad,56.025976,14.204734
Gamla vägen 91,Fjälkinge,Kristianstad,56.04364,14.276567
Östra Boulevarden 3,Kristianstad,Kristianstad,56.03092,14.157994
Marknadsvägen 7,Löddeköpinge,Kävlinge,55.769318,12.99029
Marknadsvägen 7,Kävlinge,Kävlinge,55.711876,13.19042
Mårtensgatan 25 B,Kävlinge,Kävlinge,55.791607,13.109996
Transportvägen 2,Löddeköpinge,Kävlinge,55.767134,12.998061
Nygatan 1,Kävlinge,Kävlinge,55.790547,13.109191
Barsebäcksvägen 60,Löddeköpinge,Kävlinge,55.758407,13.008579
Marknadsvägen 7,Malmö,Kävlinge,55.799285,13.121831
Varuvägen 1,Löddeköpinge,Kävlinge,55.769102,12.99365
Storgatan 31,Landskrona,Landskrona,55.870174,12.829104
Pjäsgatan 14,Landskrona,Landskrona,55.888549,12.824631
Järnvägsgatan 9,Landskrona,Landskrona,55.870126,12.832574
Drottninggatan 31,Landskrona,Landskrona,55.868595,12.830666
Ringvägen 170,Landskrona,Landskrona,55.870832,12.849153
Eriksgatan 124,Landskrona,Landskrona,55.876229,12.832841
Norra långgatan 19 A,Landskrona,Landskrona,55.869308,12.831008
Vikingavägen 1,Bjärred,Lomma,55.721403,13.017028
Seglaregatan 2,Lomma,Lomma,55.673072,13.069745
STRANDVÄGEN 68,Lomma,Lomma,55.674251,13.070922
Norra västkustvägen 4 ,Bjärred,Lomma,55.71815,13.029213
Torggatan 5 ,Lomma,Lomma,55.673514,13.071692
Centrumgatan 19,Lomma,Lomma,55.673048,13.068392
Västra stationsgatan 10,Lund,Lund,55.70293,13.192945
Fäladstorget 18,Lund,Lund,55.723397,13.203358
Knut den stores torg 2,Lund,Lund,55.705332,13.18926
Sandgatan 2,Lund,Lund,55.705293,13.195774
Stora södergatan 2,Lund,Lund,55.702239,13.192552
Kyrkogatan 1,Lund,Lund,55.703235,13.192436
Scheelevägen 17,Lund,Lund,55.713601,13.21543
Stora södergatan 15,Lund,Lund,55.701031,13.192423
Kristers Väg 11,Dalby,Lund,55.664344,13.348011
Lilla fiskaregatan 21,Lund,Lund,55.703353,13.189652
KNUT DEN STORES TORG 2,Lund,Lund,55.705332,13.18926
Mårtenstorget 8,Lund,Lund,55.701334,13.196302
Karhögstorg 10,Lund,Lund,55.694056,13.19249
Soldatgränd 3,Södra Sandby,Lund,55.716494,13.34438
EMDALAVÄGEN 4,Lund,Lund,55.717718,13.217901
Häckebergavägen 3 ,Genarp,Lund,55.599369,13.400675
Bangatan 3,Lund,Lund,55.706166,13.187108
Bankgatan 1,Lund,Lund,55.701251,13.195356
Entrégatan 7,Lund,Lund,55.711831,13.198492
Fjelievägen 3,Lund,Lund,58.466432,13.444769
Fäladstorget 30 ,Lund,Lund,55.723044,13.203606
Företagsvägen 10 ,Lund,Lund,55.71394,13.159958
Företagsvägen 10,Lund,Lund,55.71394,13.159958
Kiliansgatan 11 A,Lund,Lund,44.386111,-95.89
Schéelevägen 27,Lund,Lund,55.717831,13.213868
Vikingavägen 31,Lund,Lund,55.694118,13.241396
Dalbyvägen 4 ,Södra Sandby,Lund,55.700948,13.201993
Sjöbovägen 6,Veberöd,Lund,55.633952,13.491813
Mårtenstorget 11,Lund,Lund,55.701905,13.197777
Klostergatan 2,Lund,Lund,55.703982,13.192142
Bygatan 4,Genarp,Lund,55.599786,13.398984
Östra Förstadsgatan 56,Malmö,Malmö,55.606116,13.02294
Agnesfridsvägen 177,Malmö,Malmö,55.566721,13.047959
Centralplan 1,Malmö,Malmö,55.608334,12.999217
Centralplan,Malmö,Malmö,55.608395,13.00012
Södra förstadsgatan 12,Malmö,Malmö,55.599797,13.00121
Jägersrovägen 151,Malmö,Malmö,55.570175,13.057949
Nornegatan 3,Malmö,Malmö,55.552079,12.993521
Linnégatan 45,Limhamn,Malmö,55.581606,12.933505
Slottsgatan 33,Malmö,Malmö,55.602681,12.992514
Claesgatan 6,Malmö,Malmö,55.590422,13.008459
Isbergs gata 3,Malmö,Malmö,55.613131,12.992237
Mariedalsvägen 34,Malmö,Malmö,55.596617,12.98341
Adlerfeltsväg 4 F,Malmö,Malmö,55.609063500000005,13.0001165
Södra förstadsgatan 78,Malmö,Malmö,55.593236,13.005288
Skomakaregatan 5,Malmö,Malmö,55.604819,13.000109
Södergatan 5,Malmö,Malmö,55.605042,13.001094
Stora nygatan 31,Malmö,Malmö,55.603713,13.003517
Stora Nygatan 31,Malmö,Malmö,55.603713,13.003517
Trelleborgsvägen 14,Malmö,Malmö,55.581497,13.007239
Järnvägsgatan 37,Limhamn,Malmö,55.582487,12.931618
Skeppsgatan 19,Malmö,Malmö,55.607953,12.981925
Linnégatan 48,Limhamn,Malmö,55.581645,12.935247
Jägersrovägen 160,Malmö,Malmö,55.569022,13.061957
Föreningsgatan 35,Malmö,Malmö,55.59909,13.007851
Sjömansgatan 7,Malmö,Malmö,55.609506,12.979658
Östergatan 39,Malmö,Malmö,55.607665,13.00342
Södergatan 30,Malmö,Malmö,55.603633,13.001488
Södra förstadsgatan 44,Malmö,Malmö,55.596363,13.002575
Köpenhamnsvägen 49,Malmö,Malmö,55.594465,12.967992
Klagshamnsvägen 40,Bunkeflostrand,Malmö,55.555334,12.919287
Spångatan 3,Malmö,Malmö,55.59598,13.003694
Lundavägen 78,Malmö,Malmö,55.614533,13.041771
Lantmannagatan 59,Malmö,Malmö,55.58148,13.016927
Sallerupsvägen 3 B,Malmö,Malmö,55.605002,13.024952
Hornyxegatan 6,Malmö,Malmö,55.566442,13.051322
Amiralsgatan 84,Malmö,Malmö,55.59101,13.023554
Södergatan 10,Malmö,Malmö,55.605583,13.001493
Kattsundsgatan 18,Malmö,Malmö,55.606312,13.006452
Östra Varvsgatan 4,Malmö,Malmö,55.612758,12.986153
Cederströmsgatan 2,Malmö,Malmö,55.599056,13.059028
Inga Marie Nilssons gata 41,Malmö,Malmö,55.588665,13.004319
Wachtmeister Väg 11,Malmö,Malmö,55.586953,13.046683
Bergsgatan 54,Malmö,Malmö,55.590081,13.005994
Amiralgatan 81,Malmö,Malmö,55.590824,13.021603
Nydalatorget 4,Malmö,Malmö,55.573007,13.020246
Munkhättegatan 152,Malmö,Malmö,55.558818,13.014622
Skeppsbron,Malmö,Malmö,55.6112075,12.997785499999999
Nordenskiöldsgatan 8,Malmö,Malmö,55.609794,12.995166
GUSTAF ADOLFS TORG 4,Malmö,Malmö,55.601443,12.999628
Stadt Hamburgsgatan 2,Malmö,Malmö,55.602902,13.002972
REGEMENTSGATAN 15,Malmö,Malmö,55.598772,12.981389
Ahrenbergsgatan 4,Malmö,Malmö,55.596359,13.063175
Södra förstadsgatan 42,Malmö,Malmö,55.596844,13.001969
NYA AGNESFRIDSGATAN 184,Malmö,Malmö,55.563884,13.046236
Fritz Bauers gata 5,Malmö,Malmö,55.587836,13.004729
Södra förstadsgatan 99 B,Malmö,Malmö,55.589636,13.005305
Järnvägsgatan 42,Limhamn,Malmö,55.582313,12.932082
JÄGERSRO ENTREN,Malmö,Malmö,55.572324,13.059086
Eric Perssons väg 11,Malmö,Malmö,55.58451,12.988457
Hyllie stationstorg 13,Malmö,Malmö,55.563019,12.976374
Wachtmeisters väg 11,Malmö,Malmö,55.586953,13.046683
Stengodsvägen 129,Oxie,Malmö,55.539368,13.095228
Östergatan 12,Malmö,Malmö,55.607653,13.007276
Stortorget 7 ,Malmö,Malmö,55.606724,12.999497
Carlsgatan 6,Malmö,Malmö,55.610631,12.999495
Hyllie boulevard 19,Malmö,Malmö,55.563613,12.974654
Per Albin Hanssons väg 40,Malmö,Malmö,55.581168,13.003437
Masttorget 14,Malmö,Malmö,55.611907,12.980277
Adlerfelts väg 2 A,Malmö,Malmö,55.586719,13.045092
Frölichs väg 1,Malmö,Malmö,55.586351,13.047649
S:t Johannesgatan 3,Malmö,Malmö,55.59598,13.003694
Kyrkhultsvägen 6,Lönsboda,Osby,56.39759,14.322714
Esplanadgatan 3,Osby,Osby,56.380065,13.996261
Allégatan 4,Perstorp,Perstorp,56.137919,13.395619
Lillevångsgatan 18,Simrishamn,Simrishamn,55.555969,14.346714
Dammgatan 1,Simrishamn,Simrishamn,55.556563,14.350966
Sandbyvägen 1,Borrby,Simrishamn,55.457678,14.178968
Storgatan 6,Gärsnäs,Simrishamn,55.557354,14.351733
Torget 1,Hammenhög,Simrishamn,55.502524,14.150255
Storgatan 36 A,Simrishamn,Simrishamn,55.556447,14.344257
Stortorget 2,Simrishamn,Simrishamn,55.556476,14.349755
Torget,Kivik,Simrishamn,55.552694,14.341681
Stora Rådmansgatan 5,Simrishamn,Simrishamn,55.557142,14.348174
Västergatan 3,Sjöbo,Sjöbo,55.631593,13.704392
Gamla torget 6,Sjöbo,Sjöbo,59.859056,17.63658
Fränningevägen 2,Vollsjö,Sjöbo,55.70677,13.790581
Järnvägsgatan 9,Skurup,Skurup,55.470542,13.503382
Järnvägsgatan 1,Rydsgård,Skurup,55.474181,13.590342
Torget 10,Skurup,Skurup,55.469798,13.503521
Stortorget 9,Skurup,Skurup,55.470542,13.503382
Bråhögsplatsen 8,Staffanstorp,Staffanstorp,55.641868,13.204647
STORGATAN 1,Staffanstorp,Staffanstorp,55.642754,13.206055
Torget 5,Staffanstorp,Staffanstorp,55.643798,13.207298
Herrevadsgatan 11 D,Svalöv,Svalöv,55.913064,13.107618
Bankgatan 16,Svedala,Svedala,55.508485,13.235865
Storgatan 17,Svedala,Svedala,55.509128,13.236474
Banmästaregatan 2,Tomelilla,Tomelilla,55.545996,13.945905
Brunnsviksvägen 2,Brösarp,Tomelilla,55.712431,14.084729
Nybogatan 2,Tomelilla,Tomelilla,55.544502,13.952953
Algatan 38,Trelleborg,Trelleborg,55.37433,13.155576
Östergatan 2,Trelleborg,Trelleborg,55.373359,13.159881
Landsvägen 36,Anderslöv,Trelleborg,55.423111,13.568776
Algatan 21,Trelleborg,Trelleborg,55.374022,13.156751
Glädjebacksgatan 7,Trelleborg,Trelleborg,55.373374,13.167816
Hedvägen 125,Trelleborg,Trelleborg,55.381841,13.144335
Algatan 10,Trelleborg,Trelleborg,55.373725,13.158664
Bankgatan 8,Vellinge,Vellinge,55.469818,13.020151
Södergatan 11,Skanör,Vellinge,55.412513,12.843938
Falsterbovägen 87,Höllviken,Vellinge,55.46691,13.008462
Kungstorpsvägen 8,Höllviken,Vellinge,55.425701,12.964952
Södergatan 12,Skanör,Vellinge,55.412151,12.843807
Stortorget 12,Vellinge,Vellinge,55.471308,13.0205
Kungstorpsvägen 8 C,Höllviken,Vellinge,55.425701,12.964952
Stortorget 13,Ystad,Ystad,55.429029,13.819342
Hamngatan 6,Ystad,Ystad,55.428627,13.821184
Stora östergatan 49,Ystad,Ystad,55.430567,13.827268
Missunnavägen 3,Ystad,Ystad,55.431978,13.799659
Regementsgatan 14,Ystad,Ystad,55.430976,13.830766
Stortorget,Ystad,Ystad,55.429473,13.820026
Brännaregatan 7,Hyllinge,Åstorp,56.099305,12.858224
Skolgatan 6,Åstorp,Åstorp,56.13449,12.947645
Torggatan 15,Åstorp,Åstorp,56.134442,12.946873
Stortorget 6,Ängelholm,Ängelholm,56.243104,12.861934
Storgatan 46,Ängelholm,Ängelholm,56.244228,12.862912
Storgatan 26,Ängelholm,Ängelholm,56.242464,12.862286
Östra vägen 17,Ängelholm,Ängelholm,56.237928,12.87625
Östra storgatan 10,Munka-Ljungby,Ängelholm,56.259124,12.969638
Järnvägsgatan 1,Ängelholm,Ängelholm,56.242701,12.862018
Munka Ljungbyvägen 5,Ängelholm,Ängelholm,56.254381,12.879413
Storgatan 52,Ängelholm,Ängelholm,56.245075,12.863235
Lärkgatan 5,Ängelholm,Ängelholm,56.244864,12.863506
Ringgatan 4,Munka-Ljungby,Ängelholm,56.259671,12.968744
Kungsvägen 51,Skånes Fagerhult,Örkelljunga,56.369798,13.467635
Ängelholmsvägen 2,Örkelljunga,Örkelljunga,56.283819,13.277492
Järnvägsgatan 2 A,Örkelljunga,Örkelljunga,56.283548,13.276674
Torggatan 2,Broby,Östra Göinge,56.255258,14.07762
Storgatan 19,Glimåkra,Östra Göinge,56.305705,14.138219
Bygatan 3,Knislinge,Östra Göinge,56.193223,14.08674
Bygatan 3,Sibbhult,Östra Göinge,56.267765,14.202392
Hallunda torg,Norsborg,Botkyrka,59.246327,17.821381
Albyvägen 2,Norsborg,Botkyrka,59.238006,17.844787
Tumba torg 103,Tumba,Botkyrka,59.19886,17.834783
Tumba torg 6,Tumba,Botkyrka,59.198734,17.832851
Fittjavägen 9,Norsborg,Botkyrka,59.248779,17.859997
Nyängsvägen 3,Tullinge,Botkyrka,59.206258,17.903027
Hallunda Torg 1,Norsborg,Botkyrka,59.246327,17.821381
TUMBA TORG 2,Tumba,Botkyrka,59.199076,17.835088
Borgvägen 2,Norsborg,Botkyrka,59.24472,17.8242
Tumba Torg 5,Tumba,Botkyrka,59.1991,17.835078
Mörbygårdsvägen,Danderyd,Danderyd,59.3913845669962,18.0432088891428
Mörbyplan,Danderyd,Danderyd,59.3982260989546,18.0345709162775
Vendevägen 16,Djursholm,Danderyd,59.397958,18.086776
Mörby centrum,Danderyd,Danderyd,59.398487,18.035603
Golfvägen 8,Danderyd,Danderyd,59.398258,18.036081
Tegelbruksvägen 1b,Ekerö,Ekerö,59.289459,17.812231
Mälarö torg 2,Ekerö,Ekerö,59.289819,17.811585
Sågenvägen 8,Vendelsö,Haninge,59.199734,18.191471
Runstensvägen 1,Handen,Haninge,59.16829,18.140278
Kyrkvägen 4,Västerhaninge,Haninge,59.122738,18.106311
Brandbergsleden,Brandbergen,Haninge,59.1740487,18.1741075
Dalarövägen 6,Handen,Haninge,59.173545,18.141593
Handenterminalen 3,Handen,Haninge,59.167886,18.136148
Hurtigs torg 2,Jordbro,Haninge,59.141301,18.132555
Centrumvägen 5,Västerhaninge,Haninge,59.123014,18.105139
Rudsjöterassen 1,Handen,Haninge,59.166163,18.135534
Odinsvägen 23,Dalarö,Haninge,59.132755,18.407644
Drakslingan 1,Haninge,Haninge,59.170222382411,18.1401382506267
RUNSTENSTORGET 2,Haninge,Haninge,59.158107,18.13486
CENTRUMVÄGEN 5,Västerhaninge,Haninge,59.123014,18.105139
Nynäsvägen 21,Haninge,Haninge,58.912798,17.947698
Anunds gränd,Handen,Haninge,59.1697325,18.140175499999998
Nynäsvägen 21 G,Haninge,Haninge,58.912798,17.947698
Flemingsberg C,Huddinge,Huddinge,59.242386,17.995941
Tangentvägen 4,Kungens Kurva,Huddinge,59.271412,17.921204
Alfred Nobelsallé 13,Huddinge,Huddinge,59.242386,17.995941
Röntgenvägen 9,Huddinge,Huddinge,59.223087,17.938944
Forelltorget 8,Huddinge,Huddinge,59.236334,17.98106
Hälsovägen,Huddinge,Huddinge,59.2224377957344,17.9388520943757
Kvarnängsvägen 5,Huddinge,Huddinge,59.217753,17.957154
Sjödalstorget 13,Huddinge,Huddinge,59.235419,17.981952
Skogåsplan 9,Skogås,Huddinge,59.217609,18.154041
Sjödalstorget 5,Huddinge,Huddinge,59.236072,17.982232
Dialoggatan 2,Kungens Kurva,Huddinge,59.268355,17.909708
Stationsvägen 40,Huddinge,Huddinge,59.252241,17.998114
Sjödalstorget 1,Huddinge,Huddinge,59.235403,17.981285
Diagonalvägen 2,Kungens Kurva,Huddinge,59.265547,17.92253
Nyckelvägen 4,Skogås,Huddinge,59.201588,18.129134
Trångsundstorget 9,Trångsund,Huddinge,59.226302,18.137
Skogåstorget 16,Skogås,Huddinge,59.218081,18.15236
Modulvägen 6,Kungens Kurva,Huddinge,59.270105,17.916966
Björnkullavägen 2,Huddinge,Huddinge,59.217756,17.946116
Veddestavägen 13,Järfälla,Järfälla,59.404003,17.854625
Gjutarplan 22,Järfälla,Järfälla,59.454265,17.806114
Tornérplatsen,Järfälla,Järfälla,59.417902,17.828665
Jaktplan 15,Järfälla,Järfälla,59.402437,17.867492
Riddarplatsen 3,Järfälla,Järfälla,59.424118,17.834263
Vasaplatsen 17,Järfälla,Järfälla,59.423054,17.835038
Viksjöplan,Järfälla,Järfälla,59.417902,17.828665
Riddarplatsen 35,Järfälla,Järfälla,59.424027,17.837455
Riddarplatsen 11,Järfälla,Järfälla,59.424194,17.835541
Allmogeplatsen 11,Järfälla,Järfälla,59.422669,17.83646
Tornérplatsen 27,Järfälla,Järfälla,59.422408,17.839304
Barkarbyvägen 45,Järfälla,Järfälla,59.414135,17.864387
Södra kungsvägen 240,Lidingö,Lidingö,59.348272,18.204585
Stockholmsvägen 35,Lidingö,Lidingö,59.364874,18.127079
Herserudsvägen 1,Lidingö,Lidingö,59.362996,18.123542
Stockholmsvägen 53 C,Lidingö,Lidingö,59.365407,18.133229
Larsbergstorget 5,Lidingö,Lidingö,59.348355,18.144172
Friggavägen 22,Lidingö,Lidingö,59.366604,18.133917
Ektorpsvägen 6,Nacka,Nacka,59.311152,18.202568
Lasarettvägen 9,Nacka,Nacka,59.311139,18.197921
Simbagatan 18,Nacka,Nacka,59.305795,18.124072
Fisksätra torg 20,Saltsjöbaden,Nacka,59.29322,18.257259
Forumvägen 12,Nacka,Nacka,59.310235,18.16473
Torggatan 1,Saltsjöbaden,Nacka,59.285311,18.274392
Ältavägen 202,Älta,Nacka,59.255959,18.177166
Gustav de Lavals torg 4,Nacka,Nacka,59.306063,18.151743
Romansvägen 12,Nacka,Nacka,59.309149,18.165914
Kanholmsvägen 21,Saltsjö-Boo,Nacka,59.324326,18.256921
Augustendalsvägen 16,Nacka Strand,Nacka,59.316351,18.160391
Siroccogatan 1,Nacka,Nacka,59.305125,18.130951
Siroccogatan 6d,Nacka,Nacka,59.305428,18.12786
Ormingeplan 3,Saltsjö-Boo,Nacka,59.326553,18.25766
Siroccogatan 7,Nacka,Nacka,59.304885,18.130803
Stora brogatan 1,Norrtälje,Norrtälje,59.757605,18.702693
Grisslehamn 13,Grisslehamn,Norrtälje,30.153927,31.270654
Danskes gränd 2,Norrtälje,Norrtälje,59.758698,18.702249
Klövergatan 1,Norrtälje,Norrtälje,59.767872,18.719713
Köpmannagatan 5 A,Rimbo,Norrtälje,59.743653,18.367341
Centrumvägen 7,Väddö,Norrtälje,59.971312,18.80759
Gottstavägen 4,Hallstavik,Norrtälje,60.049867,18.597222
Centrumvägen 2,Nykvarn,Nykvarn,59.178617,17.429587
Centrumvägen 4 K,Nykvarn,Nykvarn,59.178475,17.429997
Centralgatan 8,Nynäshamn,Nynäshamn,58.903326,17.948585
Nynäsvägen 44,Nynäshamn,Nynäshamn,58.933494,17.8597815
Centralgatan 10,Nynäshamn,Nynäshamn,58.903621,17.947578
Centralgatan 6 B,Nynäshamn,Nynäshamn,58.903198,17.949027
Industrivägen 10,Nynäshamn,Nynäshamn,58.91334,17.956342
Säby torg 15,Rönninge,Salem,59.201909,17.766831
Säby torg 1,Rönninge,Salem,59.20149,17.767095
Cederströms slinga,Arlandastad,Sigtuna,59.6078545590807,17.8970697714925
Märsta station,Märsta,Sigtuna,59.626068,17.859114
Raisiogatan 1,Märsta,Sigtuna,59.618825,17.856124
Hammargatan 6,Märsta,Sigtuna,59.615022,17.829149
Stora gatan 29,Sigtuna,Sigtuna,59.616904,17.722846
Arlanda flygplats,Stockholm-Arlanda,Sigtuna,59.651236,17.924793
Arlanda sky city,Stockholm-Arlanda,Sigtuna,59.61652,17.72363
Nymärsta gränd 6,Märsta,Sigtuna,59.619889,17.852973
Sköldvägen 8,Sollentuna,Sollentuna,59.427523,17.949983
Allfarvägen 21,Sollentuna,Sollentuna,59.430115,17.949957
Edsbergs torg 8,Sollentuna,Sollentuna,59.44543,17.966244
Stupvägen 21,Sollentuna,Sollentuna,59.410299,17.964442
Glimmervägen 10,Sollentuna,Sollentuna,59.437547,17.936751
Sköldvägen 18,Sollentuna,Sollentuna,59.428614,17.948848
Gillbostråket 4,Sollentuna,Sollentuna,59.476652,17.912084
Sollentunavägen 163,Sollentuna,Sollentuna,59.427777,17.95296
Gustav III:s boulevard 41,Solna,Solna,59.371359,18.016084
Solnavägen 55,Solna,Solna,59.364277,17.995043
Hotellgatan 3,Solna,Solna,59.358866,18.000011
Storgatan 67-78,Solna,Solna,59.3507047167377,17.9886095545925
Björnstigen 26,Solna,Solna,59.38183,18.033964
Hagalundsgatan 19,Solna,Solna,59.362754,18.011281
Hotellgatan 9,Solna,Solna,59.359073,18.000028
Karolinska vägen,Stockholm,Solna,59.3525647767662,18.0307585159522
Solna torg 4,Solna,Solna,59.346748,18.032638
Centralvägen 21,Solna,Solna,59.358391,18.000575
Solna Strandväg 1,Solna,Solna,59.356059,17.971412
Karolinska vägen 1,Solna,Solna,59.351092,18.025249
Storgatan 70,Solna,Solna,59.349821,17.985976
Centralvägen 10,Solna,Solna,59.358732,18.001295
Mall of Scandinavia,Solna,Solna,59.370958,18.00354
Solna Centrum,Solna,Solna,30.907757,77.102364
Solnavägen 14,Solna,Solna,59.348093,18.030094
Bryggerivägen 10,Bromma,Stockholm,59.350122,17.968292
Farstaplan 20,Farsta,Stockholm,59.243176,18.090892
Farsta C plan 2,Farsta,Stockholm,59.245347,18.088366
Hagsätra torg 7 B,Bandhagen,Stockholm,59.262742,18.014599
Klarabergsgatan  50,Stockholm,Stockholm,59.332189,18.06164
Mäster Samuelsgatan 57,Stockholm,Stockholm,59.332512,18.061469
Drottninggatan 27,Stockholm,Stockholm,59.330842,18.064305
Norrmalmstorg 1,Stockholm,Stockholm,59.333303,18.072253
Lilla Frescativägen 1,Stockholm,Stockholm,59.365195,18.052091
Fleminggatan 20,Stockholm,Stockholm,59.333364,18.044439
Sankt Eriksgatan 26,Stockholm,Stockholm,59.332586,18.031738
Hornsgatan 146 a-b,Stockholm,Stockholm,59.316118,18.03952
Götgatan  36,Stockholm,Stockholm,59.316958,18.071777
Fatbursgatan 6,Stockholm,Stockholm,59.314698,18.065199
Valhallavägen 77,Stockholm,Stockholm,59.345973,18.071068
S:t Eriksgatan 45,Stockholm,Stockholm,59.33346075,18.030647375
Hjälmarsvägen 39,Årsta,Stockholm,59.296897,18.052859
Svartågatan 1,Bagarmossen,Stockholm,59.276768,18.131913
Åstorpsringen 6,Enskededalen,Stockholm,59.288601,18.098733
Farstagången 28,Farsta,Stockholm,59.241832,18.090437
Fruängsplan,Hägersten,Stockholm,59.285255116615,17.9647019839558
Fruängsgången 5,Hägersten,Stockholm,59.28556,17.964145
Lövkojsgränd 12,Hässelby,Stockholm,59.379781,17.817155
Hässelby torg 10,Hässelby,Stockholm,59.367595,17.843327
Gullmarsplan 4-6,Johanneshov,Stockholm,59.298469,18.079057
Kärrtorpsplan 1,Johanneshov,Stockholm,59.283874,18.115464
Edvard Griegsgången 24,Kista,Stockholm,59.410092,17.925884
Sibeliusgången 19 C,Kista,Stockholm,59.415164,17.912127
Skarpnäcks allé 24,Skarpnäck,Stockholm,59.268117,18.127013
Bredängstorget 9,Skärholmen,Stockholm,59.295003,17.934775
Måsholmstorget 26,Skärholmen,Stockholm,59.274102,17.906942
Spånga torgväg 4-6,Spånga,Stockholm,59.381218,17.899136
Tenstagången 45,Spånga,Stockholm,59.393977,17.901804
Arenavägen 33,Johanneshov,Stockholm,59.295073,18.079862
Kungsgatan 65,Stockholm,Stockholm,59.333289,18.055218
Centralplan 23,Stockholm,Stockholm,59.33077,18.058173
Folkungagatan 94,Stockholm,Stockholm,59.314943,18.081051
Götgatan 132,Stockholm,Stockholm,59.3083,18.075956
Götgatan 78,Stockholm,Stockholm,59.312041,18.073975
Grev Turegatan 4,Stockholm,Stockholm,59.335118,18.074864
Hamngatan 12,Stockholm,Stockholm,59.332949,18.070588
Hamngatan 18-20,Stockholm,Stockholm,59.35979385,18.09961
Humlegårdsgatan 12,Stockholm,Stockholm,59.336584,18.076324
Karlaplan 13,Stockholm,Stockholm,59.338892,18.090993
Katarina bangata 13,Stockholm,Stockholm,59.312202,18.075222
Kungsgatan 52,Stockholm,Stockholm,59.334939,18.060666
Liljeholmstorget 114,Stockholm,Stockholm,59.31012,18.021999
Odengatan 54,Stockholm,Stockholm,59.343801,18.054019
Oxenstiernsgatan 20,Stockholm,Stockholm,59.334644,18.101334
Regeringsgatan 42,Stockholm,Stockholm,59.33382,18.068346
Regeringsgatan 65,Stockholm,Stockholm,59.334975,18.067461
Riksgatan 1,Stockholm,Stockholm,59.327475,18.067667
Tideliusgatan 12,Stockholm,Stockholm,59.310934,18.062073
Rosenlundsgatan 1 B,Stockholm,Stockholm,59.317717,18.055433
Rosenlundsgatan 48,Stockholm,Stockholm,59.312918,18.057276
S:T Eriksgatan 43,Stockholm,Stockholm,59.33346075,18.030647375
Sankt Eriksgatan 43,Stockholm,Stockholm,59.334165,18.032035
Sveavägen 14,Stockholm,Stockholm,59.334163,18.065069
Universitetsvägen 9,Stockholm,Stockholm,59.363549,18.05816
Solursgången 4,Vällingby,Stockholm,59.363231,17.873469
Vittangigatan 2A,Vällingby,Stockholm,59.36138,17.874807
Johan skyttes väg 192,Älvsjö,Stockholm,59.278729,18.007987
Travbaneplan 10,Bromma,Stockholm,59.365687,17.94248
Brommaplan,Bromma,Stockholm,59.338385,17.9383865
Alviksvägen 47,Bromma,Stockholm,59.327766,17.973997
Farsta torg 6,Farsta,Stockholm,59.243735,18.091556
Farstaplan,Farsta,Stockholm,59.242742386803,18.0922820953788
Valborgsmässovägen 48,Hägersten,Stockholm,59.299171,17.996516
Arenavägen 45,Johanneshov,Stockholm,59.294298,18.080086
Arenaslingan 1,Johanneshov,Stockholm,59.292098,18.082576
Kista Galleria,Kista,Stockholm,59.402001,17.9438495
Kista centrum,Kista,Stockholm,59.403698,17.948018
Nybohovsbacken 24,Stockholm,Stockholm,59.30962,18.024684
Storholmsgatan 9,Skärholmen,Stockholm,59.275375,17.907928
Odengatan 71,Stockholm,Stockholm,59.342662,18.050723
Mynttorget 4,Stockholm,Stockholm,59.326319,18.067526
Kungsträdgårdsgatan 8,Stockholm,Stockholm,59.331167,18.072755
Sergels torg 2,Stockholm,Stockholm,59.332926,18.065847
Hantverkargatan 24,Stockholm,Stockholm,59.329038,18.043543
Sankt Eriksgatan 32,Stockholm,Stockholm,59.333488,18.032242
Rålambsvägen 17,Stockholm,Stockholm,59.328171,18.016369
Odengatan 28,Stockholm,Stockholm,59.345392,18.060468
Tegnérgatan 18,Stockholm,Stockholm,59.33973,18.060212
Karlbergsvägen 44,Stockholm,Stockholm,59.342873,18.039163
Stureplan 2,Stockholm,Stockholm,59.335657,18.073312
Nybrogatan 39,Stockholm,Stockholm,59.336517,18.078593
Karlavägen 56,Stockholm,Stockholm,59.339132,18.081969
Narvavägen 34,Stockholm,Stockholm,59.336893,18.090973
Karlavägen 100,Stockholm,Stockholm,59.336104,18.096193
Värtahamnen,Stockholm,Stockholm,59.350703499999995,18.109571
Djurgårdsslätten 51,Stockholm,Stockholm,59.324292,18.102367
Medborgarplatsen 3,Stockholm,Stockholm,59.3147934807204,18.0710418160309
Hornsgatan 56,Stockholm,Stockholm,59.31891,18.061832
Götgatan 90,Stockholm,Stockholm,59.310301,18.074955
Söderhallarna,Stockholm,Stockholm,59.3147915,18.071036499999998
Vällingbygången 2,Vällingby,Stockholm,59.36219,17.873264
Mässvägen 1,Älvsjö,Stockholm,59.277643,18.015209
Högdalsgången 17,Bandhagen,Stockholm,59.263717,18.040587
Blackebergsplan 5,Bromma,Stockholm,59.347726,17.882993
Gustavslundsvägen 22,Bromma,Stockholm,59.332712,17.982788
Hökarängsplan 24,Farsta,Stockholm,59.257011,18.081701
Farsta torg 21,Farsta,Stockholm,59.242517,18.091807
Storforsplan 44 A,Farsta,Stockholm,59.241909,18.093622
Störtloppsvägen 25,Hägersten,Stockholm,59.293252,17.967163
Selmedalsvägen 42,Hägersten,Stockholm,59.304731,17.974488
Bredholmsgatan 7,Skärholmen,Stockholm,59.275508,17.906555
Skärholmsgången 22,Skärholmen,Stockholm,59.276795,17.905999
Sköndalsvägen 89,Sköndal,Stockholm,59.255692,18.114525
Spånga torgväg 9,Spånga,Stockholm,59.380985,17.898408
Gjörwellsgatan 22,Stockholm,Stockholm,59.328073,18.018051
Kronborgsgränd 12,Kista,Stockholm,59.397741,17.948006
Vanadisplan 4,Stockholm,Stockholm,59.345329,18.038871
Valhallavägen 75,Stockholm,Stockholm,59.346062,18.070712
Värtavägen 69,Stockholm,Stockholm,59.348655,18.101037
Södra Hamnvägen 46,Stockholm,Stockholm,59.350376,18.106947
Erik Dahlbergsgatan 12,Stockholm,Stockholm,59.341021,18.090905
Vasagatan 11,Stockholm,Stockholm,59.332772,18.05695
Klarabergsviadukten 72,Stockholm,Stockholm,59.331095,18.056686
Sankt Eriksplan 10,Stockholm,Stockholm,59.339747,18.036204
Karlavägen 36,Stockholm,Stockholm,59.340077,18.077369
Storgatan 1,Stockholm,Stockholm,59.335832,18.080546
Hornsgatan 140,Stockholm,Stockholm,59.316371,18.041098
Kornhamnstorg 51,Stockholm,Stockholm,59.322913,18.071398
Norrtullsgatan 10,Stockholm,Stockholm,59.343367,18.05072
Sveavägen 45,Stockholm,Stockholm,59.339237,18.059492
Kungsgatan 1,Stockholm,Stockholm,59.336073,18.071796
Birger Jarlsgatan 43,Stockholm,Stockholm,59.339292,18.067478
Norrmalmstorg 12,Stockholm,Stockholm,59.333476,18.072431
Sergelgatan 22,Stockholm,Stockholm,59.334551,18.063092
Sergelarkaden 2,Stockholm,Stockholm,59.354332,17.997182
Hamngatan 37,Stockholm,Stockholm,59.332444,18.067182
Odengatan 49,Stockholm,Stockholm,59.344012,18.056169
Sveavägen 159,Stockholm,Stockholm,59.349882,18.046093
Strandvägen 5 B,Stockholm,Stockholm,59.332483,18.078471
Hornsgatan 51,Stockholm,Stockholm,59.318039,18.056779
Götgatan 3,Stockholm,Stockholm,59.319317,18.071402
Arsenalsgatan 11,Stockholm,Stockholm,59.330561,18.073281
Grevgränd 3,Stockholm,Stockholm,59.330135,18.073869
Sankt Göransgatan 139,Stockholm,Stockholm,59.334716,18.021885
Årstaängsvägen 17 A,Stockholm,Stockholm,59.310166,18.028678
Hammarby allé 93,Stockholm,Stockholm,59.304276,18.093731
Vällingby torg 27,Vällingby,Stockholm,59.362373,17.87188
Brunnbyvägen 11,Årsta,Stockholm,59.294074,18.031955
Götalandsvägen 220,Älvsjö,Stockholm,59.279373,18.008864
Högdalsgången 9,Bandhagen,Stockholm,59.263206,18.043019
Tunnlandet 11,Bromma,Stockholm,59.337677,17.937678
Gustavslundsvägen 50,Bromma,Stockholm,59.33309,17.980412
FRUÄNGSGÅNGEN 5,Hägersten,Stockholm,59.28556,17.964145
T Gullmarsplan,Johanneshov,Stockholm,59.2983042122484,18.0796061083997
Gullmarsplan 10,Johanneshov,Stockholm,59.297971,18.079384
Kistagången 19,Kista,Stockholm,59.403632,17.948182
Vasagatan 27,Stockholm,Stockholm,59.334584,18.055534
Medborgarplatsen 21-23,Stockholm,Stockholm,59.314819,18.072156749999998
Klarabergsgatan 25,Stockholm,Stockholm,59.332566,18.064211
Kungsholmstorg 16,Stockholm,Stockholm,59.328564,18.043354
Hornsgatan 37,Stockholm,Stockholm,59.318534,18.060706
Hamngatan 29,Stockholm,Stockholm,59.332579,18.065942
Centralplan 15,Stockholm,Stockholm,59.330392,18.058741
Klarabergsgatan 37,Stockholm,Stockholm,59.331541,18.060546
Regeringsgatan 19,Stockholm,Stockholm,59.330972,18.068121
Sankt Eriksgatan 89,Stockholm,Stockholm,59.341918,18.037885
Ringvägen 115,Stockholm,Stockholm,59.307846,18.075285
Sjukhusbacken 10,Stockholm,Stockholm,59.309982,18.055927
Södersjukhuset sjukhusbacken 10,Stockholm,Stockholm,59.309982,18.055927
HAMMARBY ALLÉ 56 A,Stockholm,Stockholm,59.303767,18.093259
Arenatorget 2,Johanneshov,Stockholm,59.2937879915671,18.0816833000298
Vällingby torg 77,Vällingby,Stockholm,59.363303,17.872591
Vällingbyplan 18,Vällingby,Stockholm,59.36263,17.872392
Kistagången 21,Kista,Stockholm,59.402715,17.942945
Mässvägen 1,Stockholm,Stockholm,59.277643,18.015209
Lindhagensgatan 96A,Stockholm,Stockholm,59.334425,18.015152
Allmänna gränd 9,Stockholm,Stockholm,59.324233,18.09527
Norrlandsgatan,Stockholm,Stockholm,59.3347251022241,18.0713183860099
Regeringsgatan 48,Stockholm,Stockholm,59.334363,18.067965
Torsgatan 12,Stockholm,Stockholm,59.336231,18.049807
Farstaplan 12,Farsta,Stockholm,59.244259,18.090552
Allmänna gränd 3,Stockholm,Stockholm,59.324233,18.095796
Rinkebytorget 1,Spånga,Stockholm,59.340651,17.93909
Dalens allé 4,Enskededalen,Stockholm,59.285024,18.09316
Kista galleria,Kista,Stockholm,59.402001,17.9438495
KARLBERGSVÄGEN 12,Stockholm,Stockholm,59.343186,18.04937
Renstiernas gata 18,Stockholm,Stockholm,59.315201,18.083668
Klarabergsviadukten 49,Stockholm,Stockholm,59.330584,18.057449
Olivecronas väg 5,Stockholm,Stockholm,59.338416,18.04725
Kungsgatan 13,Stockholm,Stockholm,59.33593,18.069253
Allmänna gränd 6,Stockholm,Stockholm,59.324573,18.096329
Ulvsundavägen 187,Bromma,Stockholm,59.356236,17.954911
Ulvsundavägen 185 C,Bromma,Stockholm,59.354742,17.956674
Årevägen 59,Vällingby,Stockholm,59.361662,17.875541
Norra hamnpirsvägen 10,Stockholm,Stockholm,59.351467,18.112834
Vasagatan 36,Stockholm,Stockholm,59.332737,18.057707
Drottninggatan 29,Stockholm,Stockholm,59.331191,18.063958
Nybohovsbacken 38,Stockholm,Stockholm,59.30925,18.022747
Farstaplan 29,Farsta,Stockholm,59.243029,18.091006
Lillholmsgången 7,Skärholmen,Stockholm,59.275673,17.907876
Sankt Eriksgatan 44,Stockholm,Stockholm,59.334791,18.033042
Valhallavägen 142-148,Stockholm,Stockholm,59.3444024759249,18.0806437221369
Drottninggatan 56,Stockholm,Stockholm,59.333717,18.061572
T-bana Östermalmstorg,Stockholm,Stockholm,59.336066,18.079439
Värtavägen 67,Stockholm,Stockholm,59.348483,18.101118
Regeringsgatan 47,Stockholm,Stockholm,59.333121,18.067761
Sköndalsvägen 91,Sköndal,Stockholm,59.255563,18.114503
Högdalsgången 19,Bandhagen,Stockholm,59.263838,18.040415
Västerlånggatan 28,Stockholm,Stockholm,59.324984,18.069301
S:t Eriksgatan 38,Stockholm,Stockholm,59.33346075,18.030647375
Landsvägen 55,Sundbyberg,Sundbyberg,59.361324,17.967467
Rissne torg 7,Sundbyberg,Sundbyberg,59.320145,17.989641
Sturegatan 33,Sundbyberg,Sundbyberg,59.362935,17.968612
Sturegatan 5,Sundbyberg,Sundbyberg,59.361276,17.973535
Sturegatan 22,Sundbyberg,Sundbyberg,59.362986,17.969055
Hallonbergsplan 5-7,Sundbyberg,Sundbyberg,59.375477,17.969112
Sturegatan 19,Sundbyberg,Sundbyberg,59.361988,17.971467
Stationsgatan 2,Sundbyberg,Sundbyberg,59.362093,17.969206
Rissneleden 110,Sundbyberg,Sundbyberg,59.381041,17.936837
Vasagatan 3,Sundbyberg,Sundbyberg,59.36173,17.965443
Nygatan 18,Södertälje,Södertälje,59.196153,17.625075
Storgatan 4,Södertälje,Södertälje,59.195993,17.627654
Klastorpsvägen 14,Södertälje,Södertälje,59.202703,17.663941
Nygatan 23 A,Södertälje,Södertälje,59.196528,17.624315
Storgatan 11,Järna,Södertälje,59.196694,17.626728
Bragevägen 24,Södertälje,Södertälje,59.211278,17.632019
Grödingevägen 75,Södertälje,Södertälje,59.186495,17.656411
Rosenborgsgatan 10,Södertälje,Södertälje,59.199851,17.633241
Storgatan 2 B,Södertälje,Södertälje,59.19501,17.628403
Wedavägen 2 C,Södertälje,Södertälje,59.204891,17.644998
Storgatan 11,Södertälje,Södertälje,59.196694,17.626728
Storgatan 3,Järna,Södertälje,59.195582,17.627595
Storgatan 7,Södertälje,Södertälje,59.196126,17.627185
Sunnangränd 12,Tyresö,Tyresö,59.244512,18.228726
Dalgränd 10,Tyresö,Tyresö,59.245097,18.22745
Sunnangränd 5,Tyresö,Tyresö,59.244772,18.22885
Alléplan 4,Tyresö,Tyresö,59.223175,18.200627
VÄSTANGRÄND 12,Tyresö,Tyresö,59.244001,18.228408
Östangränd 6,Tyresö,Tyresö,59.244346,18.228226
Eskadervägen 4,Täby,Täby,59.430443,18.095291
Flygsvängen 1,Täby,Täby,59.445634,18.121406
Saluvägen 2,Täby,Täby,59.461453,18.132885
Täby centrum,Täby,Täby,59.444118,18.074271
Biblioteksgången 7 A,Täby,Täby,59.445184,18.069519
Stora marknadsvägen 15,Täby,Täby,59.444251,18.072876
Saluvägen 10,Täby,Täby,59.460206,18.136907
Kanalvägen 7 D,Upplands Väsby,Upplands Väsby,59.499418,17.926654
Centralvägen 3 A,Upplands Väsby,Upplands Väsby,59.521402,17.902681
Hammarbyvägen 194,Upplands Väsby,Upplands Väsby,59.527102,17.914965
Sandavägen 2,Upplands Väsby,Upplands Väsby,59.509084,17.950535
Dragonvägen 86,Upplands Väsby,Upplands Väsby,59.518665,17.909925
CENTRALVÄGEN 7 B,Upplands Väsby,Upplands Väsby,59.521138,17.904387
Väsby centrum,Upplands Väsby,Upplands Väsby,59.518562,17.912933
Broplan,Bro,Upplands-Bro,59.512573,17.648423
Östervägen 2,Kungsängen,Upplands-Bro,59.479064,17.751817
Bro centrum 19,Bro,Upplands-Bro,59.516085,17.642379
Tuna torg 13,Vallentuna,Vallentuna,59.5339460217006,18.0783587559574
Torggatan 13,Vallentuna,Vallentuna,59.534875,18.078333
Allevägen 8,Vallentuna,Vallentuna,59.534455,18.076781
Tuna torg 2,Vallentuna,Vallentuna,59.533636,18.078598
Fredriksstrandsvägen 2,Vaxholm,Vaxholm,59.402084,18.331573
Hamngatan 5,Vaxholm,Vaxholm,59.402654,18.351947
Söderhamnsplan 2,Vaxholm,Vaxholm,59.402339,18.352316
Hamngatan 1,Vaxholm,Vaxholm,59.40254,18.352329
Pastor Ödmans väg 2,Ingarö,Värmdö,59.28234,18.425364
Skärgårdsvägen 7,Gustavsberg,Värmdö,59.327332,18.380292
Fenix väg 4,Gustavsberg,Värmdö,59.313443,18.428077
Skärgårdsvägen 3,Gustavsberg,Värmdö,59.325131,18.393416
Muskötvägen 28,Åkersberga,Österåker,59.471884,18.331811
Storängstorget 1,Åkersberga,Österåker,59.479428,18.298528
Rallarvägen 8,Åkersberga,Österåker,59.482305,18.281427
Storängstorget 10,Åkersberga,Österåker,59.480166,18.299385
Stationsgränd 7,Åkersberga,Österåker,59.47953,18.296433
Grönborgsvägen 30,Åkersberga,Österåker,59.548307,18.573754
Järnvägsplan 1,Eskilstuna,Eskilstuna,59.369727,16.507066
Sturegatan 9,Eskilstuna,Eskilstuna,59.356259,16.499791
Lundbladsvägen 6,Eskilstuna,Eskilstuna,59.365895,16.5239
Mälarsjukhuset,Eskilstuna,Eskilstuna,59.363344,16.5356565
Fristadstorget 10,Eskilstuna,Eskilstuna,59.370638,16.513043
Kungsgatan 17,Eskilstuna,Eskilstuna,59.370704,16.512817
Gunborg Nymans väg 2,Eskilstuna,Eskilstuna,59.371344,16.470114
Kyrkogatan 8,Eskilstuna,Eskilstuna,59.369268,16.516572
Kungsgatan 5,Eskilstuna,Eskilstuna,59.369539,16.516461
Kungsgatan 21,Eskilstuna,Eskilstuna,59.370937,16.512089
Kungsgatan 24,Eskilstuna,Eskilstuna,59.371672,16.510365
Brogatan 13,Torshälla,Eskilstuna,59.419869,16.475146
Kungsgatan 2,Eskilstuna,Eskilstuna,59.369245,16.517832
Götgatan 1,Flen,Flen,59.058536,16.588724
Drottninggatan 1,Flen,Flen,59.059338,16.590305
Kungsgatan 24,Malmköping,Flen,59.052832,16.603216
Dansutvägen 2,Gnesta,Gnesta,59.039943,17.32651
Västra Storgatan 9,Gnesta,Gnesta,59.048302,17.308717
Västra storgatan 3,Gnesta,Gnesta,59.048074,17.310429
Stortorget 2,Katrineholm,Katrineholm,58.995875,16.206003
Köpmangatan 11,Katrineholm,Katrineholm,58.995378,16.207963
Köpmangatan 8,Katrineholm,Katrineholm,58.995715,16.204388
Köpmangatan 14,Katrineholm,Katrineholm,58.995541,16.205841
Bagaregatan 25,Nyköping,Nyköping,58.750928,17.004098
Östra storgatan 12,Nyköping,Nyköping,58.754309,17.014609
Västra storgatan 14,Nyköping,Nyköping,58.751763,17.004133
Västra Storgatan 34,Nyköping,Nyköping,58.752647,17.007734
Västra storgatan 9,Nyköping,Nyköping,58.751638,17.00295
Östra Storgatan 6,Nyköping,Nyköping,58.754043,17.013435
Västra storgatan 34,Nyköping,Nyköping,58.752647,17.007734
Västra storgatan 13,Nyköping,Nyköping,58.751834,17.003611
General Schybergs väg 22,Nyköping,Nyköping,58.784719,16.921595
Västra Storgatan 14,Nyköping,Nyköping,58.751763,17.004133
Järntorget 6,Oxelösund,Oxelösund,58.669902,17.10516
Järntorget 2,Oxelösund,Oxelösund,58.669361,17.104044
Trädgårdsgatan 10,Strängnäs,Strängnäs,59.376559,17.026027
Storgatan 15,Mariefred,Strängnäs,59.259054,17.220996
Västervikstorget 2,Strängnäs,Strängnäs,59.37772,17.029643
Trädgårdsgatan 14,Strängnäs,Strängnäs,59.376199,17.027203
Källgatan 9,Strängnäs,Strängnäs,59.375964,17.025843
Storgatan 9,Mariefred,Strängnäs,59.259218,17.222406
Långgatan 11,Mariefred,Strängnäs,59.259683,17.222336
Torget 2,Trosa,Trosa,58.896281,17.548196
Östra långgatan 30,Trosa,Trosa,58.896535,17.548485
Centrumvägen 16,Vagnhärad,Trosa,58.945841,17.485391
Bondegatan 10,Vingåker,Vingåker,59.042982,15.873237
Bondegatan 14,Vingåker,Vingåker,59.043059,15.874432
Kungsgatan 23,Enköping,Enköping,59.635165,17.078536
Torggatan 21,Enköping,Enköping,59.634381,17.080982
Kungsgatan 17,Enköping,Enköping,59.635629,17.079648
Torggatan 32,Enköping,Enköping,59.636944,17.076152
SALAGATAN 10 C,Enköping,Enköping,59.644159,17.084486
VAGNSGATAN 3,Enköping,Enköping,59.652237,17.087819
Enköpingsvägen 9,Örsundsbro,Enköping,59.735508,17.310409
Kungsgatan 21,Enköping,Enköping,59.635328,17.078969
Kyrkogatan 6,Heby,Heby,59.938679,16.861931
Torgvägen 4,Östervåla,Heby,60.181376,17.179777
Norra storgatan 2 A,Tärnsjö,Heby,60.153938,16.928577
Centrumstråket 1,Bålsta,Håbo,59.566631,17.531596
Centrumstråket 2,Bålsta,Håbo,59.566903,17.530088
Stockholmsvägen 85,Bålsta,Håbo,59.569512,17.529814
Centralvägen 13,Knivsta,Knivsta,59.726567,17.786589
Centralplan 2 B,Tierp,Tierp,60.344952,17.513329
Torget 2,Skärplinge,Tierp,60.472106,17.75966
Centralgatan 17,Tierp,Tierp,60.343862,17.513718
Kungsgatan 95,Uppsala,Uppsala,59.849349,17.6583
Vaksalagatan 30,Uppsala,Uppsala,59.862167,17.646605
Svartbäcksgatan 7,Uppsala,Uppsala,59.859531,17.637498
Bolandsgatan 15 G,Uppsala,Uppsala,59.85211,17.686287
Dragarbrunnsgatan 49,Uppsala,Uppsala,59.857691,17.642967
Flogstavägen 99,Uppsala,Uppsala,59.851853,17.5869
Kungsängsgatan 14,Uppsala,Uppsala,59.857223,17.641541
Fyrisparksvägen 1,Uppsala,Uppsala,59.84854,17.560136
Marknadsgatan 1,Uppsala,Uppsala,59.877027,17.672668
Idrottsgatan 2,Uppsala,Uppsala,59.870507,17.623302
Skolgatan 6,Uppsala,Uppsala,59.860826,17.628568
Stora torget 7,Uppsala,Uppsala,59.858616,17.639565
Kungsängsgatan 7,Uppsala,Uppsala,59.857747,17.640365
Ringgatan 35,Uppsala,Uppsala,59.862708,17.613377
Dragarbrunnsgatan 40,Uppsala,Uppsala,59.859716,17.639634
Björkgatan 61,Uppsala,Uppsala,59.855527,17.664834
Björkgatan 4,Uppsala,Uppsala,59.867239,17.66008
Akademiska sjukhuset,Uppsala,Uppsala,59.847281,17.642478
Heidenstamsgatan 69,Uppsala,Uppsala,59.877702,17.647061
Kvarntorget 1,Uppsala,Uppsala,59.866582,17.64809
Sysslomansgatan 14,Uppsala,Uppsala,59.860247,17.628839
Rapsgatan 1,Uppsala,Uppsala,59.844598,17.691562
Gamla torget 5,Uppsala,Uppsala,59.858845,17.63663
MARKNADSGATAN 2,Uppsala,Uppsala,59.87892,17.669989
Kungsgatan 40,Uppsala,Uppsala,59.860051,17.641653
STORA TORGET 3,Uppsala,Uppsala,59.85825,17.63905
Torbjörnsgatan 1,Uppsala,Uppsala,59.875288,17.624003
Västertorg 5,Uppsala,Uppsala,59.841015,17.601945
Olof Palmes plats 10,Uppsala,Uppsala,59.858322,17.646299
Östra ågatan 31,Uppsala,Uppsala,59.857822,17.638312
GRÄNBY CENTRUM,Uppsala,Uppsala,59.877359,17.6744305
Valthornsvägen 11,Uppsala,Uppsala,59.809473,17.629494
Bangårdsgatan 28,Uppsala,Uppsala,59.858126,17.64336
Drottninggatan 3,Uppsala,Uppsala,59.85769,17.636875
Stationsgatan 14,Uppsala,Uppsala,59.858331,17.649177
Bredgränd 6,Uppsala,Uppsala,59.857667,17.641176
Valthornsvägen 7,Uppsala,Uppsala,59.810151,17.629077
Centralgatan 10,Skutskär,Älvkarleby,60.625982,17.413089
Centralgatan 7,Skutskär,Älvkarleby,60.625272,17.414252
Centrumvägen 3,Alunda,Östhammar,60.064544,18.081082
Strandgatan 30,Öregrund,Östhammar,60.365606,18.322917
Drottninggatan 9,Östhammar,Östhammar,60.258728,18.374005
Gimo torg 4,Gimo,Östhammar,60.170408,18.176254
Skolvägen,Österbybruk,Östhammar,60.2626719241792,18.3608095050666
Norra tullportsplan 11,Östhammar,Östhammar,60.258575,18.369859
Torggatan 7,Arvika,Arvika,59.655122,12.592099
Storgatan 30,Arvika,Arvika,59.654667,12.591542
Västra torggatan 1 A,Arvika,Arvika,59.654089,12.590629
Torgg. 10,Arvika,Arvika,59.655609,12.592668
Hönacka Sälgen,Glava,Arvika,59.654356,12.591622
Storgatan 5,Charlottenberg,Eda,59.88466,12.300052
Helga Görlins gata 1,Charlottenberg,Eda,59.881886,12.289806
Torggatan 7,Charlottenberg,Eda,59.923172,12.261193
Jössevägen 6,Åmotfors,Eda,59.763164,12.36346
Koppomsvägen 104,Koppom,Eda,59.715727,12.162047
Victoriagatan 2 A,Filipstad,Filipstad,59.712721,14.168814
Hertig Filipsgatan 1,Filipstad,Filipstad,59.713116,14.168509
Älvdalsvägen 35,Deje,Forshaga,59.603741,13.466674
Storgatan 44,Forshaga,Forshaga,59.533205,13.481674
Sveagatan 89,Grums,Grums,59.352662,13.111409
Sveagatan 53,Grums,Grums,59.347705,13.109474
Torsbyvägen 2,Ekshärad,Hagfors,60.172876,13.497054
Kyrkogatan 2,Hagfors,Hagfors,60.031695,13.699004
Storgatan 3,Hagfors,Hagfors,60.034366,13.695302
Köpmangatan 6,Hagfors,Hagfors,60.032254,13.700415
Bivägen 7,Hammarö,Hammarö,59.34459,13.504503
Björkhagsgatan 9,Skoghall,Hammarö,59.325698,13.4673
Östra torggatan 2,Karlstad,Karlstad,59.378395,13.504392
Rudsvägen 26,Karlstad,Karlstad,59.391532,13.515914
Rudsvägen 26-28,Karlstad,Karlstad,59.3896727272844,13.5152508698179
Frykmans väg 1,Karlstad,Karlstad,59.377484,13.42485
Rosenborgsgatan 2,Karlstad,Karlstad,59.378572,13.48212
Tingvallagatan 11,Karlstad,Karlstad,59.38033,13.50307
Sommargatan 110,Karlstad,Karlstad,59.405821,13.579216
Drottninggatan 24,Karlstad,Karlstad,59.379404,13.498835
Fjärrviksvägen 2 A,Karlstad,Karlstad,59.430197,13.414209
Ramgatan 3,Karlstad,Karlstad,59.385717,13.480011
Petersbergsgatan 21,Karlstad,Karlstad,59.38456,13.463339
Tingvallagatan 17,Karlstad,Karlstad,59.380319,13.501195
Signalhornsgatan 28,Karlstad,Karlstad,59.402395,13.572419
Östra torggatan 14,Karlstad,Karlstad,59.381267,13.504681
Järnvägsgatan 10,Karlstad,Karlstad,59.37981,13.499638
Frykmans väg 3,Karlstad,Karlstad,59.375894,13.428472
Stationsgatan 5,Molkom,Karlstad,59.601513,13.721726
Drottninggatan 10,Karlstad,Karlstad,59.379359,13.503225
Frykmans väg 1 A,Karlstad,Karlstad,59.377484,13.42485
Östra Torggatan 11,Karlstad,Karlstad,59.38014,13.50405
Järnvägsgatan 2,Karlstad,Karlstad,59.378569,13.499483
Signalhornsgatan 13,Karlstad,Karlstad,59.403016,13.571062
Storgatan 49,Kil,Kil,59.5036,13.315439
Storgatan 39,Kil,Kil,56.474388,14.092296
Kungsgatan 29,Kristinehamn,Kristinehamn,59.309634,14.108498
Albinvägen 2,Kristinehamn,Kristinehamn,59.312856,14.101734
Nya kyrkogatan 19,Kristinehamn,Kristinehamn,59.309831,14.109426
Torget 3,Munkfors,Munkfors,59.835007,13.54493
Djupdalsgatan 5,Storfors,Storfors,59.531349,14.273565
Storgatan 24,Sunne,Sunne,59.837607,13.147067
Bryggargatan 7,Sunne,Sunne,59.838625,13.142896
Storgatan 33,Sunne,Sunne,59.837181,13.145121
Magasinsgatan 6,Säffle,Säffle,59.13438,12.919536
Östra storgatan 2,Säffle,Säffle,59.132508,12.927795
Östra storgatan 17,Säffle,Säffle,59.132785,12.932742
Smedjegatan 1B,Svanskog,Säffle,59.178844,12.552333
Järnvägsgatan 2,Torsby,Torsby,60.134477,13.007519
Tingshusgatan 6,Torsby,Torsby,60.135612,13.005819
Värnäsmon 29,Stöllet,Torsby,60.427338,13.258858
Torget 2,Sysslebäck,Torsby,60.730327,12.871948
Älverudsvägen 1,Töcksfors,Årjäng,59.506454,11.844788
Kvarnåsgatan 3,Årjäng,Årjäng,59.39264,12.131329
Sveavägen 18,Töcksfors,Årjäng,59.508218,11.838572
Köpmannagatan 5,Bjurholm,Bjurholm,63.930763,19.217731
Storgatan 33,Dorotea,Dorotea,64.261437,16.410376
Storgatan 28,Lycksele,Lycksele,64.594904,18.677122
Storgatan 29,Lycksele,Lycksele,64.594933,18.676687
Storgatan 44,Malå,Malå,65.18237,18.743356
Kyrkogatan 3,Nordmaling,Nordmaling,63.569051,19.498612
Storgatan 56,Norsjö,Norsjö,64.911863,19.482684
Östra Järnvägsgatan 12,Bastuträsk,Norsjö,64.789843,20.04171
Storgatan 29,Robertsfors,Robertsfors,64.192812,20.847648
Gymnasievägen 4,Skellefteå,Skellefteå,64.74108,20.96439
Nygatan 42,Skellefteå,Skellefteå,64.750619,20.951854
Södra järnvägsgatan 50,Skellefteå,Skellefteå,64.752725,20.956557
Nygatan 49,Skellefteå,Skellefteå,64.75071,20.952717
Burviksvägen 1,Bureå,Skellefteå,64.615624,21.204565
Storgatan 13,Byske,Skellefteå,64.954171,21.205611
Torget 2,Skellefteå,Skellefteå,64.750706,20.95415
Hörnellgatan 14,Skellefteå,Skellefteå,64.750807,20.955458
Nöppelbergsvägen 1,Skellefteå,Skellefteå,64.762447,21.001553
Nygatan 50,Skellefteå,Skellefteå,64.750439,20.954513
Köpmangatan 6,Burträsk,Skellefteå,64.520825,20.659692
Södra esplanaden 1,Sorsele,Sorsele,65.534073,17.537451
Norra Esplanaden 1,Sorsele,Sorsele,65.535006,17.537406
Skolgatan 16 C,Storuman,Storuman,65.095758,17.114753
Västra Strandvägen 2,Tärnaby,Storuman,65.710682,15.266517
Västra strandvägen 15,Tärnaby,Storuman,65.711403,15.257284
Kungsgatan 54,Umeå,Umeå,63.82598,20.261757
Parkvägen 7,Umeå,Umeå,63.832563,20.28035
Rådhusesplanaden 3,Umeå,Umeå,63.826593,20.263506
Västra kyrkogatan 11,Umeå,Umeå,63.825715,20.268338
Lasarettsbacken 1,Umeå,Umeå,63.818365,20.295306
Östra rådhusgatan 6,Umeå,Umeå,63.825001,20.263737
Storgatan 48,Umeå,Umeå,63.824469,20.263512
Himmelska fridens torg 7,Holmsund,Umeå,63.707328,20.365033
Västermalmsgatan 2,Hörnefors,Umeå,63.626015,19.907697
Petrus Laestadius väg,Umeå,Umeå,63.8233665185273,20.3065953113959
Västra rådhusgatan 5,Umeå,Umeå,63.825471,20.261784
Formvägen 4,Umeå,Umeå,63.850599,20.299914
Järnvägstorget 2,Umeå,Umeå,63.829961,20.264861
Ågatan 11,Umeå,Umeå,63.820688,20.253216
Björnvägen 1,Umeå,Umeå,63.848168,20.299184
Strömpilsplatsvägen 33,Umeå,Umeå,63.792993,20.2846295
Nygatan 19,Umeå,Umeå,63.827807,20.263508
Renmarkstorget 8,Umeå,Umeå,63.82611,20.260251
Rådhusesplanaden 2 A,Umeå,Umeå,63.825846,20.26371
Marknadsgatan 7,Umeå,Umeå,63.805693,20.255037
Storgatan 49,Umeå,Umeå,63.825541,20.259576
Generalsvägen 23,Sävar,Umeå,63.90112,20.550462
Volgsjövägen 21b,Vilhelmina,Vilhelmina,64.62641,16.651648
Volgsjövägen 25,Vilhelmina,Vilhelmina,64.625779,16.653296
Häradsvägen 119,Vindeln,Vindeln,64.200938,19.71966
Östra järnvägsgatan 12,Vännäs,Vännäs,63.906221,19.752801
Centralgatan 42 A,Åsele,Åsele,64.161844,17.353319
Stora torget 7,Härnösand,Härnösand,62.632514,17.938472
Nybrogatan 2,Härnösand,Härnösand,62.633245,17.938462
Trädgårdsgatan 3,Härnösand,Härnösand,62.632127,17.939217
Tullportsgatan 2,Härnösand,Härnösand,62.62924,17.931002
Nybrogatan 1,Härnösand,Härnösand,62.633477,17.938415
Köpmangatan 7,Härnösand,Härnösand,62.633112,17.93838
Limstagatan 1,Kramfors,Kramfors,62.93076,17.776755
Centrumvägen 30,Ullånger,Kramfors,63.010384,18.187856
Limstagatan 13,Kramfors,Kramfors,62.931631,17.780296
Borgargatan 17,Nyland,Kramfors,63.006059,17.759909
Biblioteksgatan 1,Kramfors,Kramfors,62.931709,17.778334
Stationsgatan 13,Långsele,Sollefteå,63.177259,17.064608
Storgatan 47,Sollefteå,Sollefteå,63.168459,17.266406
Köpmangatan 33,Junsele,Sollefteå,63.695703,16.87923
Storgatan 13,Ramsele,Sollefteå,63.537553,16.471117
Storgatan 61,Sollefteå,Sollefteå,63.16703,17.27042
Storgatan 55,Sollefteå,Sollefteå,63.16761,17.268823
Storgatan 54,Sollefteå,Sollefteå,63.167507,17.268689
Storgatan 47,Näsåker,Sollefteå,63.168459,17.266406
Gesällvägen 8,Sundsvall,Sundsvall,62.444818,17.331402
Stuvarvägen 25,Sundsvall,Sundsvall,62.390668,17.316252
Centralgatan 9,Sundsvall,Sundsvall,62.390031,17.307262
Njurundavägen 60,Njurunda,Sundsvall,62.269237,17.373487
Gesällvägen 1,Sundsvall,Sundsvall,62.447125,17.335877
Storgatan 15,Sundsvall,Sundsvall,62.390683,17.310524
Esplanaden 9,Sundsvall,Sundsvall,62.389959,17.308533
Köpmangatan 19,Sundsvall,Sundsvall,62.389163,17.303269
Norra vägen 10,Sundsvall,Sundsvall,62.413837,17.339579
Lasarettsvägen 21,Sundsvall,Sundsvall,62.408025,17.305808
Storgatan 17,Sundsvall,Sundsvall,62.39119,17.305901
Sjögatan 13,Sundsvall,Sundsvall,62.391576,17.309624
Sjögatan 20,Sundsvall,Sundsvall,62.391979,17.30641
Medborgargatan 28,Sundsvall,Sundsvall,62.400728,17.339161
Raholmsvägen 11,Alnö,Sundsvall,62.429081,17.416813
Affärsgatan 6,Kvissleby,Sundsvall,62.298305,17.379027
Skölevägen 6 B,Matfors,Sundsvall,62.347721,17.019015
Betselvägen 4,Sundsvall,Sundsvall,62.415371,17.21617
Gesällvägen 3,Sundsvall,Sundsvall,62.44556,17.335217
Gesällsvägen 3,Sundsvall,Sundsvall,62.44556,17.335217
Storgatan 20 A,Sundsvall,Sundsvall,62.390915,17.30985
Östra långgatan 11,Sundsvall,Sundsvall,62.386273,17.30873
Axvägen 1,Sundsvall,Sundsvall,62.39193,17.262477
Storgatan 28,Sundsvall,Sundsvall,62.391264,17.306691
Lidenvägen 75,Liden,Sundsvall,62.698531,16.800359
Bölevägen 9,Sörberge,Timrå,62.509145,17.371255
Köpmangatan 31,Timrå,Timrå,62.48683,17.324034
Fränstavägen 281,Fränsta,Ånge,62.497761,16.168345
Centralgatan 7,Ånge,Ånge,62.525655,15.65799
Domsjövägen 2,Domsjö,Örnsköldsvik,63.267145,18.690902
Köpmangatan 4,Örnsköldsvik,Örnsköldsvik,63.291044,18.716087
Storgatan 26,Örnsköldsvik,Örnsköldsvik,63.290991,18.715381
Bruksvägen 189,Husum,Örnsköldsvik,63.339911,19.163911
Storgatan 16,Örnsköldsvik,Örnsköldsvik,63.289304,18.716301
Bredåker 101,Sidensjö,Örnsköldsvik,63.300983,18.279321
Nätragatan 31,Bjästa,Örnsköldsvik,63.201368,18.501926
Köpmangatan 46,Bredbyn,Örnsköldsvik,63.44833,18.109092
Hörnettvägen 10,Domsjö,Örnsköldsvik,63.272867,18.69176
Sjukhusgatan 8,Örnsköldsvik,Örnsköldsvik,63.299472,18.71236
Björnavägen 68,Örnsköldsvik,Örnsköldsvik,63.314319,18.704085
Stora torget 2,Örnsköldsvik,Örnsköldsvik,59.781384,5.498987
Storgatan 12,Örnsköldsvik,Örnsköldsvik,63.288477,18.71676
Köpmangatan 9,Örnsköldsvik,Örnsköldsvik,63.290808,18.715139
Lomvägen 4,Långviksmon,Örnsköldsvik,63.630295,18.694473
Nygatan 30,Arboga,Arboga,59.395107,15.840742
Nygatan 40,Arboga,Arboga,59.39469,15.838931
Centrumleden 6,Arboga,Arboga,59.396637,15.840943
Järnvägstorget 5,Fagersta,Fagersta,59.989419,15.816527
Stationsvägen 7,Fagersta,Fagersta,60.00431,15.792565
Stationsvägen 18,Fagersta,Fagersta,60.004259,15.795891
Stationsvägen 12,Fagersta,Fagersta,60.003756,15.793114
Hammartorget 5 c,Hallstahammar,Hallstahammar,59.614113,16.228556
Parkgatan 7,Hallstahammar,Hallstahammar,59.613874,16.230951
Stationsgatan 12,Kolbäck,Hallstahammar,59.564046,16.230585
Drottninggatan 11,Kungsör,Kungsör,59.424155,16.09541
Stora gatan 4,Köping,Köping,59.511941,15.993114
Ringvägen 76,Köping,Köping,59.522817,15.974295
Stora gatan 12,Köping,Köping,59.513347,15.997346
Bergslagsvägen 103,Kolsva,Köping,59.601137,15.840646
Stora gatan 13,Köping,Köping,59.513281,15.996664
Volvogatan 1,Köping,Köping,59.507438,15.993911
Stora Gatan 11,Köping,Köping,59.513134,15.996222
Industrigatan 1,Norberg,Norberg,60.065974,15.925159
MYNTGATAN 2,Norberg,Norberg,60.06519,15.925028
Norrbygatan 14,Sala,Sala,59.34884,26.936495
Bergsmansgatan 2 A,Sala,Sala,41.519108,1.218121
Södra esplanaden 1,Sala,Sala,8.869701,124.792608
Stora Torget 6,Sala,Sala,34.030222,-6.7719
Centralvägen 2,Skinnskatteberg,Skinnskatteberg,59.831779,15.692723
Köpmangatan 16,Surahammar,Surahammar,59.70579,16.222647
Köpmangatan 27,Surahammar,Surahammar,59.70767,16.221427
Sturegatan 12,Västerås,Västerås,59.610634,16.547696
Allmogeplatsen 35,Västerås,Västerås,59.622418,16.503557
Centrallasarettet 21,Västerås,Västerås,59.620693,16.583696
Pettersbergsvägen 30,Västerås,Västerås,59.615984,16.517416
Pilfinksgatan,Västerås,Västerås,59.610034373088,16.4967533224614
Regementsgatan 1,Västerås,Västerås,59.609357,16.574735
Stora gatan 23,Västerås,Västerås,59.609622,16.546052
Stora torget 2,Västerås,Västerås,59.610828,16.543536
Västeråsvägen 26,Skultuna,Västerås,59.717866,16.428492
Köpingsvägen 40,Västerås,Västerås,59.603011,16.52394
Tvärleden 2,Västerås,Västerås,59.638905,16.587312
Vasagatan 20 A,Västerås,Västerås,59.610946,16.545675
Stora gatan 52,Västerås,Västerås,59.608747,16.540858
Emausgatan 35,Västerås,Västerås,59.624812,16.54769
Lugna gatan,Västerås,Västerås,59.6424333,16.5938955
Kopparbergsvägen 15,Västerås,Västerås,59.610851,16.549034
Stockholmsvägen 136,Västerås,Västerås,59.608509,16.622988
Södra ringvägen 1,Västerås,Västerås,59.607711,16.551704
Vasagatan 15,Västerås,Västerås,59.610788,16.545381
Vasagatan 71,Västerås,Västerås,59.623143,16.534623
Skiljeboplatsen 2,Västerås,Västerås,59.620838,16.593663
Stora gatan 58,Västerås,Västerås,59.608566,16.53981
Bäckby torg 1,Västerås,Västerås,59.599214,16.474232
Domkraftsvägen 2,Västerås,Västerås,59.607698,16.457772
Krankroksgatan 17,Västerås,Västerås,59.609177,16.455979
Kopparbergsvägen 10,Västerås,Västerås,59.610841,16.549737
Stora gatan 41,Västerås,Västerås,59.608664,16.541619
Stenbygatan 1,Västerås,Västerås,59.63574,16.56783
Vasagatan 25,Västerås,Västerås,59.611817,16.544553
Nödingevägen 7,Nödinge,Ale,57.892034,12.045717
Göteborgsvägen 99,Surte,Ale,57.82829,12.01528
Göteborgsvägen 99 B,Älvängen,Ale,57.958184,12.122853
Hantverkaregatan 4,Älvängen,Ale,56.693964,9.509586
Göteborgsvägen 217,Bohus,Ale,57.851151,12.01588
Ale Torg 7,Nödinge,Ale,57.894221,12.046963
Sveagatan 8 C,Alingsås,Alingsås,57.926203,12.525185
Plangatan 14,Alingsås,Alingsås,57.928822,12.53327
Kungsgatan 34,Alingsås,Alingsås,57.930112,12.53696
Kungsgatan 24,Alingsås,Alingsås,57.930256,12.535384
Bankgatan 8,Alingsås,Alingsås,57.928653,12.533006
Kungsgatan 25,Alingsås,Alingsås,57.930079,12.535515
Trollhättevägen 6,Sollebrunn,Alingsås,58.120148,12.531995
Stenebyvägen 13 A,Billingsfors,Bengtsfors,58.984373,12.249288
Storgatan 8,Bengtsfors,Bengtsfors,59.029183,12.226344
Storgatan 13,Bengtsfors,Bengtsfors,59.02924,12.224932
Stenebyvägen 30,Dals Långed,Bengtsfors,58.927812,12.296447
Torggatan 14,Bäckefors,Bengtsfors,58.805974,12.162657
Göteborgsvägen 15,Bollebygd,Bollebygd,57.669048,12.568012
Stora brogatan 2,Borås,Borås,57.720016,12.936255
Allégatan 40,Borås,Borås,57.720987,12.94186
Kyrkängsgatan 8,Borås,Borås,57.716873,12.935315
Hulta torg 4,Borås,Borås,44.07787,22.099172
Skaraborgsvägen,Borås,Borås,57.719541,12.937312
Stora torget 1,Borås,Borås,57.72082,12.939249
Företagsgatan 14,Borås,Borås,57.710004,12.861855
Fristadstorget,Fristad,Borås,57.8255636555365,13.0100289273216
Allégatan 55,Borås,Borås,57.719171,12.943406
Bergslenagatan 11,Borås,Borås,57.73376,12.93886
Brämhultsvägen 32,Borås,Borås,57.722459,12.958311
ÖSTERGÅRDSPLAN 7,Borås,Borås,57.707687,12.969275
Östgötagatan 23,Borås,Borås,57.723781,12.930394
Sjöbo torggata 4,Borås,Borås,57.749535,12.943632
Österlånggatan 30,Borås,Borås,57.721645,12.940536
Torggatan 25,Borås,Borås,57.721308,12.940463
Allégatan 3,Borås,Borås,57.724064,12.940277
Storgatan 24,Dalsjöfors,Borås,57.723105,13.104842
Stora vägen 25,Fristad,Borås,57.82456,13.008262
Alingsåsvägen 1,Sandared,Borås,57.752375,12.874633
Nya vägen 3,Viskafors,Borås,57.634556,12.858214
Lilla brogatan 8,Borås,Borås,57.719856,12.938054
Allégatan 21,Borås,Borås,57.722633,12.941198
Västerlånggatan 18,Borås,Borås,57.721475,12.938303
Herrljungagatan 1,Borås,Borås,57.734245,12.939617
Trandaredsgatan 43,Borås,Borås,57.70916,12.961989
Lilla Brogatan 8,Borås,Borås,57.719856,12.938054
Skaraborgsvägen 64,Borås,Borås,57.735776,12.937487
Torget 4,Ed,Dals-Ed,58.911855,11.932539
Storgatan 25,Ed,Dals-Ed,58.912307,11.933759
Järnvägsgatan 3 A,Nossebro,Essunga,58.187638,12.72035
Sankt Olofsgatan 5,Falköping,Falköping,58.162495,13.551044
Järnvägsgatan 4,Falköping,Falköping,58.174033,13.551707
Storgatan 7,Falköping,Falköping,58.161622,13.552233
Storgatan 1,Falköping,Falköping,58.160724,13.555551
Centrumvägen 6,Färgelanda,Färgelanda,58.567572,11.9967
Genavägen 22,Högsäter,Färgelanda,58.649947,12.055551
Torggatan 14,Grästorp,Grästorp,58.33382,12.680771
Torggatan 9,Hova,Gullspång,58.857772,14.217362
Storgatan 26,Gullspång,Gullspång,58.985977,14.097096
Muskotgatan 5,Angered,Göteborg,57.803745,12.031701
Askims verkstadsväg 18,Askim,Göteborg,57.642394,11.947934
Östra Hamngatan 13,Göteborg,Göteborg,57.708705,11.966708
Nils Ericssonplatsen 4,Göteborg,Göteborg,57.689494,11.987762
Korsgatan 13,Göteborg,Göteborg,57.704189,11.966505
Linnegatan 30,Göteborg,Göteborg,57.696502,11.951624
Krokegårdsgatan 5 B,Göteborg,Göteborg,57.721569,11.951575
Hjalmar Brantingsplatsen,Göteborg,Göteborg,57.698761,11.970591
Kultivatorgatan 1,Angered,Göteborg,57.797295,12.049549
Rymdtorget 8,Göteborg,Göteborg,57.756397,12.070074
Norra Hamngatan 20,Göteborg,Göteborg,57.707189,11.96892
Hisingsgatan 30,Göteborg,Göteborg,57.719584,11.944923
Packhusplatsen 7,Göteborg,Göteborg,57.707516,11.959681
Järntorgsgatan 6,Göteborg,Göteborg,57.701214,11.954596
Kungsportsavenyn 11,Göteborg,Göteborg,57.70107,11.97351
Kyrkbytorget 6,Göteborg,Göteborg,57.712071,11.90765
Sofierogatan 5,Göteborg,Göteborg,57.695205,11.995709
Örgrytevägen 5,Göteborg,Göteborg,57.697,11.991015
Maskingatan 11,Göteborg,Göteborg,57.701112,11.913929
Motorgatan 1-3,Göteborg,Göteborg,57.689494,11.987762
Redbergsvägen 40,Göteborg,Göteborg,57.715496,12.002794
Burggrevegatan 4,Göteborg,Göteborg,57.708931,11.976086
Södra Vägen 18,Göteborg,Göteborg,57.698799,11.981788
Spannmålsgatan 14,Göteborg,Göteborg,57.709212,11.967633
Nordstadstorget 4,Göteborg,Göteborg,57.706387,11.961412
Västra hamngatan 16,Göteborg,Göteborg,57.703754,11.964258
Vårväderstorget 1,Göteborg,Göteborg,57.689494,11.987762
Nordanvindsgatan 2,Göteborg,Göteborg,57.721002,11.9334
Brunnsbotorget 5,Hisings Backa,Göteborg,57.728257,11.971172
Importgatan 2,Hisings Backa,Göteborg,57.747296,11.994139
Frölunda torg,Västra Frölunda,Göteborg,57.651888,11.911561
Hängpilsgatan 3,Västra Frölunda,Göteborg,57.670967,11.879067
Postgatan 26-32,Göteborg,Göteborg,57.689494,11.987762
Blå stråket 5,Göteborg,Göteborg,57.682616,11.961672
Sankt Sigfrids plan 6,Göteborg,Göteborg,57.697873,11.999579
Datavägen 15 B,Askim,Göteborg,57.640406,11.952028
Mässans gata 20,Göteborg,Göteborg,57.697371,11.987846
Sörredsplatsen 1,Göteborg,Göteborg,57.719595,11.848691
Gropegårdsgatan,Göteborg,Göteborg,57.689494,11.987762
Monteringsvägen 1,Göteborg,Göteborg,57.714816,11.842051
Drottninggatan 39,Göteborg,Göteborg,57.705927,11.969101
Östra hamngatan 24,Göteborg,Göteborg,57.708371,11.967466
Kungsportsplatsen 2,Göteborg,Göteborg,57.704181,11.969993
Kusttorget 1,Göteborg,Göteborg,57.694386,11.919053
Vasagatan 26,Göteborg,Göteborg,57.698481,11.967295
Lilla bergsgatan 1,Göteborg,Göteborg,57.696316,11.960734
Kungsportsavenyn 20,Göteborg,Göteborg,57.70029,11.975589
Linnégatan 25,Göteborg,Göteborg,57.695814,11.951263
Doktor Fries torg 17,Göteborg,Göteborg,57.684164,11.972058
Brahegatan 5b,Göteborg,Göteborg,57.730072,12.013264
Teknikgatan 7,Göteborg,Göteborg,57.706513,11.938454
Lisa Sass gata 1,Hisings Backa,Göteborg,57.749888,11.989739
Lona Knapes gata 1,Västra Frölunda,Göteborg,57.650491,11.945746
Cityflygplatsen göteborg,Säve,Göteborg,57.689494,11.987762
Saltholmsgatan 101,Västra Frölunda,Göteborg,57.661177,11.84246
Bergsgårdsgärdet,Angered,Göteborg,57.7708373876591,12.0203209932823
Hantverksvägen 15,Askim,Göteborg,57.640706,11.947714
Kapellplatsen 7-8,Göteborg,Göteborg,57.693403,11.970075
Kungsportsavenyen 12,Göteborg,Göteborg,57.701147,11.974356
Mölndalsvägen 22,Göteborg,Göteborg,57.689392,11.995246
Prästgårdsängen 1,Göteborg,Göteborg,57.704811,12.007259
Första långgatan 26,Göteborg,Göteborg,57.699558,11.946583
Stena Danica,Göteborg,Göteborg,57.711397500000004,11.990786
Masthuggstorget 3A,Göteborg,Göteborg,57.698461,11.9431
Markmyntsgatan 2,Göteborg,Göteborg,57.671207,11.928376
Gustaf Larsons väg 15,Göteborg,Göteborg,57.727671,11.861186
Odinsgatan 13,Göteborg,Göteborg,57.70893,11.981024
Kungsgatan 58-60,Göteborg,Göteborg,57.689494,11.987762
Östra hamngatan 23,Göteborg,Göteborg,57.706346,11.967944
Gårdatorget 1,Göteborg,Göteborg,57.704744,11.993059
Övre Husargatan 6,Göteborg,Göteborg,57.69359,11.957808
Karl Johansgatan 88,Göteborg,Göteborg,57.693655,11.9188
Kortedala Torg 3,Göteborg,Göteborg,57.7515882744011,12.0315656148313
Kolhamnsgatan 5,Göteborg,Göteborg,57.70908,11.920406
Minnelundsvägen 8,Göteborg,Göteborg,57.729912,11.949031
Deltavägen 6,Göteborg,Göteborg,57.725498,11.953543
Lilla Bommen 2,Göteborg,Göteborg,57.712591,11.967201
Lilla Klädpressargatan 3,Göteborg,Göteborg,57.709909,11.968037
Kärraplatsen 7,Hisings Kärra,Göteborg,57.783905,11.992376
Gamla flygplatsvägen 44,Torslanda,Göteborg,57.709937,11.774109
Marconigatan 5,Västra Frölunda,Göteborg,57.653928,11.914685
Angereds torg 1,Angered,Göteborg,57.796872,12.050607
DATAVÄGEN 6,Askim,Göteborg,57.640055,11.953813
Kapellplatsen 4,Göteborg,Göteborg,57.693274,11.970974
Kungsportsavenyn 34,Göteborg,Göteborg,57.699067,11.977347
EKLANDAGATAN 57,Göteborg,Göteborg,57.690395,11.988221
Redbergsvägen 11,Göteborg,Göteborg,57.7145,11.999032
Backavägen 2,Göteborg,Göteborg,57.722004,11.955545
Norums Torg,Göteborg,Göteborg,57.689494,11.987762
Wieselgrensplatsen 6,Göteborg,Göteborg,57.721499,11.936309
Kortedala torg 3,Göteborg,Göteborg,57.7515882744011,12.0315656148313
Drottningtorget 1,Göteborg,Göteborg,57.708371,11.97232
Korsvägen 1,Göteborg,Göteborg,57.697059,11.986257
Delsjövägen 5 b,Göteborg,Göteborg,57.698131,12.000082
Olof Palmes plats 1,Göteborg,Göteborg,57.700808,11.953392
Mariaplan 5,Göteborg,Göteborg,57.687187,11.921327
Diagonsvägen 11,Göteborg,Göteborg,57.721906,12.049846
Vårväderstorget 6,Göteborg,Göteborg,57.689494,11.987762
Selma Lagerlöfs torg 1,Hisings Backa,Göteborg,57.749501,11.981067
FRÖLUNDA TORG 2,Västra Frölunda,Göteborg,57.652491,11.911141
Södra vägen 5,Göteborg,Göteborg,57.701881,11.97467
Chalmersplatsen 1,Göteborg,Göteborg,57.690316,11.978776
Södra Hamngatan 37,Göteborg,Göteborg,57.706497,11.96892
Drottningtorget 5,Göteborg,Göteborg,57.708482,11.973331
Stigbergstorget 20,Göteborg,Göteborg,57.698928,11.933309
Östra hamngatan 32,Göteborg,Göteborg,57.70731,11.96802
Lilla bommen 8,Göteborg,Göteborg,57.712569,11.968267
Gamla flygplatsvägen 4,Torslanda,Göteborg,57.713278,11.783147
Fraktflyget 8,Torslanda,Göteborg,57.709705,11.779499
Skeppsbroplatsen 1,Göteborg,Göteborg,57.689494,11.987762
Topasgatan 1,Västra Frölunda,Göteborg,57.646269,11.915668
Wieselgrensplatsen 10,Göteborg,Göteborg,57.721417,11.934977
Östra larmgatan 13,Göteborg,Göteborg,57.705301,11.971207
Viktor Rydbergsgatan 60,Göteborg,Göteborg,57.687446,11.985817
Södra Hamngatan 35,Göteborg,Göteborg,57.706332,11.967857
Gamlestads torg 3,Göteborg,Göteborg,57.727848,12.004983
Bergsgårdsgärdet 80,Angered,Göteborg,57.769057,12.021207
Friskväderstorget 2,Göteborg,Göteborg,57.723698,11.892501
Kungsportsavenyn 28,Göteborg,Göteborg,57.699446,11.976804
Selma Lagerlöfs Torg 1,Hisings Backa,Göteborg,57.749501,11.981067
Mässans gata/Korsvägen,Göteborg,Göteborg,57.6986927050396,11.9890890006374
Torget 1,Götene,Götene,58.528567,13.495185
Annagatan 2,Götene,Götene,58.528764,13.492754
Storgatan 30,Herrljunga,Herrljunga,58.077983,13.022495
Stationsvägen 7,Ljung,Herrljunga,57.987262,13.058466
Stora torget 7,Hjo,Hjo,58.301511,14.287487
Lennart Kvarnströms plats 6,Mölnlycke,Härryda,57.658801,12.116174
Badhusgatan 6 A,Mölnlycke,Härryda,57.657591,12.114411
Flygplatsvägen,Härryda,Härryda,57.6917363794925,12.2989967743476
Brattåsvägen 5 a,Landvetter,Härryda,57.688189,12.209996
Råda Torg 3B,Mölnlycke,Härryda,57.659388,12.115904
Skansgränd 3,Landvetter,Härryda,57.686761,12.211721
Lennart Kvarnströms Plats 8,Mölnlycke,Härryda,57.658818,12.116241
Kungsgatan 11,Karlsborg,Karlsborg,58.53046,14.512598
Kungsgatan 25,Karlsborg,Karlsborg,58.530163,14.511562
Västra gatan 73,Kungälv,Kungälv,57.870672,11.981466
Ringplan 1,Marstrand,Kungälv,57.887372,11.588647
Västra gatan 86,Kungälv,Kungälv,57.87089,11.981533
Gymnasiegatan 2,Kungälv,Kungälv,57.873679,11.973734
Hjule-Johns gata 6,Kungälv,Kungälv,57.871896,11.968116
Älvebacken 21,Kungälv,Kungälv,57.874567,11.967301
Lilla torget 7,Lerum,Lerum,57.769684,12.267842
Brobacken 2,Lerum,Lerum,57.770539,12.269464
Rurik Holms väg 6,Floda,Lerum,57.808522,12.361809
Mjörnbotorget,Gråbo,Lerum,57.836399,12.29918
Brobacken 10,Lerum,Lerum,57.770468,12.271619
Adelstorpsvägen 6,Lerum,Lerum,57.769782,12.268604
Nya stadens torg 1,Lidköping,Lidköping,58.503505,13.157077
Gamla stadens torg 3,Lidköping,Lidköping,58.503148,13.161805
Nya Stadens Torg 7,Lidköping,Lidköping,58.503268,13.157018
FLORAGATAN 8,Lidköping,Lidköping,58.49544,13.167949
Framnäsvägen 1,Lidköping,Lidköping,58.508408,13.14454
Läckögatan 11,Lidköping,Lidköping,58.508319,13.147354
Nya stadens torg 3,Lidköping,Lidköping,58.502855,13.158008
Lidbecksgatan 2,Lidköping,Lidköping,58.502362,13.160373
Mellbygatan 8,Lidköping,Lidköping,58.502723,13.155189
Göteborgsvägen 49,Lilla Edet,Lilla Edet,58.13712,12.127828
Långgatan 8,Lödöse,Lilla Edet,58.033028,12.153376
Storgatan 17,Lilla Edet,Lilla Edet,58.136234,12.12603
Lysekilsvägen 3,Brastad,Lysekil,58.381098,11.485188
Drottninggatan 42,Lysekil,Lysekil,58.27276,11.435565
Rosviksgatan 5,Lysekil,Lysekil,58.273235,11.435861
Hammarsmedsgatan 29,Mariestad,Mariestad,58.677932,13.818951
Österlånggatan 13,Mariestad,Mariestad,58.709122,13.82236
Österlånggatan 10,Mariestad,Mariestad,58.708645,13.822823
Nygatan 14,Mariestad,Mariestad,58.709953,13.824127
Esplanaden 5,Mariestad,Mariestad,58.709635,13.822071
Kyrkogatan 2,Kinna,Mark,57.507864,12.695082
Örbyvägen 6,Skene,Mark,57.489612,12.641244
Klockaregatan 1,Kinna,Mark,57.507853,12.69273
Varbergsvägen 438,Horred,Mark,57.353434,12.475302
Boråsvägen 33,Kinna,Mark,57.507324,12.693351
Gästgivaregatan 2,Skene,Mark,57.489373,12.641735
Hyssnavägen 1,Sätila,Mark,57.542379,12.433675
Storgatan 9,Mellerud,Mellerud,58.699981,12.452253
Köpmantorget 1,Mellerud,Mellerud,58.698908,12.451788
Storvägen 38,Åsensbruk,Mellerud,58.806433,12.421207
Centrumvägen 28,Munkedal,Munkedal,58.467373,11.670782
Mölndals bro 9,Mölndal,Mölndal,57.655554,12.015681
Storgatan 32 A,Mölndal,Mölndal,57.655111,12.011455
Ekenleden,Kållered,Mölndal,57.6059412579793,12.0467539692382
Almåsgången 1,Lindome,Mölndal,57.57725,12.089375
Göteborgsvägen 95,Mölndal,Mölndal,57.669035,12.010557
Pepparedsleden 1,Mölndal,Mölndal,57.644969,12.019601
Åbyvägen 2,Mölndal,Mölndal,57.653904,12.005533
Brogatan 30,Mölndal,Mölndal,57.654477,12.012809
EKENLEDEN 4,Kållered,Mölndal,57.605941,12.046754
BROGATAN 17,Mölndal,Mölndal,57.655385,12.01482
Göteborgsvägen 31,Mölndal,Mölndal,57.6613,12.012408
Ekenleden 10,Kållered,Mölndal,57.608216,12.044682
Åby Arenaväg 10,Mölndal,Mölndal,57.649493,12.003295
Norra Strandvägen 5,Henån,Orust,58.237682,11.67983
Edebacken 1,Ellös,Orust,58.182257,11.467011
Södra strandvägen 1,Henån,Orust,58.236456,11.679968
Skansvägen 4,Svanesund,Orust,58.142591,11.820203
Hedströms väg 1,Varekil,Orust,58.125512,11.715162
Hamntorget 12,Henån,Orust,58.237448,11.679171
Kyrktorget 19,Partille,Partille,57.739274,12.106112
Göteborgsvägen 66,Sävedalen,Partille,57.732225,12.071309
Gamla kronvägen 19 D,Partille,Partille,57.740298,12.110433
Göteborgsvägen 88,Sävedalen,Partille,57.733341,12.077065
Gamla kronvägen 19 A,Partille,Partille,57.740298,12.110433
Smedstorpsgatan 6,Skara,Skara,58.378486,13.413078
Stortorget 1,Skara,Skara,58.386229,13.440673
Hötorgsgatan 1,Skara,Skara,58.384431,13.436014
Skaraborgsgatan 21,Skara,Skara,58.384217,13.437922
Julagatan 2,Skara,Skara,58.376035,13.403892
Skara sommarland,Axvall,Skara,58.406242,13.551601
Skaraborgsgatan 49,Skara,Skara,58.391847,13.459895
Gamla kungsvägen 54,Skövde,Skövde,58.395691,13.833705
Nolhagavägen 1,Skövde,Skövde,58.40756,13.857911
Rådhusgatan 5,Skövde,Skövde,58.390272,13.846438
Timmervägen 1,Skövde,Skövde,58.426348,13.870215
Storgatan 14,Skövde,Skövde,58.389371,13.844836
Mariestadsvägen 19,Skövde,Skövde,58.395226,13.853153
Rådhusgatan 3,Skövde,Skövde,58.390592,13.846408
Lövängsvägen 1,Skövde,Skövde,58.426979,13.852049
Storgatan 15,Skövde,Skövde,58.388385,13.845094
Hertig Johans torg 4,Skövde,Skövde,58.389495,13.849534
Rådhusgatan 8,Skövde,Skövde,58.390278,13.846121
Skolgatan 1,Hunnebostrand,Sotenäs,58.440541,11.30416
Torggatan 4,Kungshamn,Sotenäs,58.360242,11.248745
Fiskhamnsgatan 16,Smögen,Sotenäs,58.354019,11.227043
Hotellgatan 1,Kungshamn,Sotenäs,58.360888,11.249342
Strandtorget 1,Stenungsund,Stenungsund,58.070229,11.817875
Östra köpmansgatan 10,Stenungsund,Stenungsund,58.069148,11.818157
Stenungstorg,Stenungsund,Stenungsund,58.0721165,11.823836
Västra Köpmansgatan 9,Stenungsund,Stenungsund,58.069384,11.816909
Badhusgatan 5,Strömstad,Strömstad,58.937921,11.171574
Västra Klevgatan 2,Strömstad,Strömstad,58.938598,11.170603
Södra hamngatan 4,Strömstad,Strömstad,58.939397,11.171174
Nordby västra köpcentrum,Strömstad,Strömstad,59.0820452767625,11.2530687368594
Norra Hamngatan 1,Strömstad,Strömstad,58.939759,11.170136
Parkgatan 4,Strömstad,Strömstad,58.93778,11.17439
Oslovägen 46,Strömstad,Strömstad,58.945197,11.186563
Kinnagatan 3,Svenljunga,Svenljunga,57.49648,13.109555
Lidavägen 1,Överlida,Svenljunga,57.348987,12.894035
Kyrkvägen 1,Fjällbacka,Tanum,58.598859,11.284274
Nedre långgatan 14,Grebbestad,Tanum,58.691799,11.25568
Postvägen 2,Hamburgsund,Tanum,58.723188,11.324936
Affärsvägen 12,Tanumshede,Tanum,58.72466,11.324784
Brehogsvägen 5,Tanumshede,Tanum,58.72242,11.346967
Stora torget 6,Tibro,Tibro,58.424583,14.161727
Stora torget 8,Tibro,Tibro,58.424536,14.162824
Västra drottninggatan 5,Tidaholm,Tidaholm,58.179686,13.958535
Gamla torget 10,Tidaholm,Tidaholm,58.180535,13.956896
Gamla torget 6,Tidaholm,Tidaholm,58.180882,13.957971
Torggatan 1,Tidaholm,Tidaholm,58.181214,13.958009
Hamngatan 54,Skärhamn,Tjörn,57.986626,11.549371
Svenborgsvägen 1,Kållekärr,Tjörn,58.025014,11.660496
Myggenäsvägen 2,Myggenäs,Tjörn,58.06215,11.751775
Södra hamnen 27,Skärhamn,Tjörn,57.98745,11.543421
Nittorpsvägen 2,Dalstorp,Tranemo,57.605159,13.511371
Östra järnvägsgatan 1,Limmared,Tranemo,57.535997,13.354401
Ingsdalsgatan 2,Länghem,Tranemo,57.602086,13.244006
Storgatan 22,Tranemo,Tranemo,57.484419,13.352423
Storgatan22,Tranemo,Tranemo,57.484008,13.3501595
Storgatan 43,Trollhättan,Trollhättan,58.284875,12.286044
Storgatan 43 C,Trollhättan,Trollhättan,58.284875,12.286044
Kungsgatan 51,Trollhättan,Trollhättan,58.283537,12.287698
Kungsgatan 30,Trollhättan,Trollhättan,58.285163,12.290987
Kungsgatan 45,Trollhättan,Trollhättan,58.284281,12.288883
Ladugårdsvägen 14,Trollhättan,Trollhättan,58.312349,12.308766
Mellanvägen 1,Trollhättan,Trollhättan,58.312307,12.326092
Storgatan 48,Trollhättan,Trollhättan,58.284511,12.285838
Karlstorpsvägen 100,Trollhättan,Trollhättan,58.271178,12.294459
Lärketorpsvägen 10,Trollhättan,Trollhättan,58.317531,12.266122
Föreningsgatan 18,Trollhättan,Trollhättan,58.283652,12.290094
Ladugårdsvägen 12,Trollhättan,Trollhättan,58.312008,12.306573
Östra torggatan 7,Töreboda,Töreboda,58.70735,14.126291
Kungstorget 1,Uddevalla,Uddevalla,58.349133,11.939026
Kungsgatan 7,Uddevalla,Uddevalla,58.349843,11.934633
Kungsgatan 12,Uddevalla,Uddevalla,58.349455,11.935203
Vällebergsvägen 12,Ljungskile,Uddevalla,58.224194,11.920496
Sunnanvindsvägen 10,Uddevalla,Uddevalla,58.361162,11.915135
Fjällvägen 22,Uddevalla,Uddevalla,58.356445,11.93216
Kampenhofsgatan 2,Uddevalla,Uddevalla,58.349966,11.931177
Norra drottninggatan 10,Uddevalla,Uddevalla,58.350263,11.934432
Torp 5,Uddevalla,Uddevalla,58.351465,11.833478
Storgatan 9,Ulricehamn,Ulricehamn,57.793577,13.413798
Boråsvägen 33,Gällstad,Ulricehamn,57.668495,13.430663
Boråsvägen 2,Ulricehamn,Ulricehamn,57.794993,13.414561
Storgatan 27,Ulricehamn,Ulricehamn,57.791743,13.412262
